{"stores":[{"name":"PlayCCG.com","database_name":"playccg","address1":"731 North 94th St","address2":"Unit 4","postal_code":"98103","city":"Seattle","state":"WA","country":"US","url":"http://www.playccg.com","latitude":47.696643,"longitude":-122.348647},{"name":"MagicStronghold.com","database_name":"magicstronghold","address1":"#20-5988 Blanshard Drive","address2":"","postal_code":"V3N 1B7","city":"Burnaby","state":"BC","country":"US","url":"http://www.magicstronghold.com","latitude":49.2240382,"longitude":-122.9420142},{"name":"CheeseBoyCards","database_name":"cheeseboycards","address1":"7139 Hickory Post","address2":"","postal_code":"89179","city":"Las Vegas","state":"NV","country":"US","url":"http://www.CheeseBoyCards.com","latitude":35.9860716,"longitude":-115.2481199},{"name":"XtremeGamesOnline.com","database_name":"xtremegamesonline","address1":"2108 E. Grand Ave.","address2":"","postal_code":"60046","city":"Lindenhurst","state":"IL","country":"US","url":"http://www.xtremegamesonline.com","latitude":42.408233,"longitude":-88.030894},{"name":"CCGHouse.com","database_name":"ccghouse","address1":"3315 NE 112th Ave #82","address2":"","postal_code":"98682","city":"Vancouver","state":"WA","country":"US","url":"http://www.ccghouse.com","latitude":45.646559,"longitude":-122.556582},{"name":"RunMTG","database_name":"runmtg","address1":"14702 Gandesa Road","address2":"","postal_code":"90638","city":"La Mirada","state":"CA","country":"US","url":"http://www.RunMTG.com","latitude":33.897218,"longitude":-118.020182},{"name":"MuguGames.com","database_name":"mugugames","address1":"7529 Beverly Blvd","address2":"STE 1","postal_code":"98203","city":"Everett","state":"WA","country":"US","url":"http://www.MuGuGames.com","latitude":47.9293252,"longitude":-122.2116105},{"name":"RNGames.com","database_name":"rngames","address1":"688 Whitlock Ave, STE 400","address2":"","postal_code":"30064","city":"Marietta","state":"GA","country":"US","url":"http://www.RNGames.com","latitude":33.9519072,"longitude":-84.5721993},{"name":"Lucky's Card Shop","database_name":"luckyscardshop","address1":"3929 High Point Road","address2":"","postal_code":"27407","city":"Greensboro","state":"NC","country":"US","url":"http://www.luckyscardshop.com","latitude":36.0368497,"longitude":-79.8619293},{"name":"TheCollectorsZone.net","database_name":"thecollectorszone","address1":"1425 Wildwood Ave","address2":"","postal_code":"49202","city":"Jackson","state":"MI","country":"US","url":"http://www.TheCollectorsZone.net","latitude":42.252384,"longitude":-84.432061},{"name":"ComicAsylum.com","database_name":"comicasylum","address1":"4750 N Jupiter Rd #112","address2":"","postal_code":"75044","city":"Garland","state":"TX","country":"US","url":"http://www.ComicAsylum.com","latitude":32.959616,"longitude":-96.682},{"name":"ChannelFireball.com","database_name":"channelfireball","address1":"30 North 3rd St.","address2":"","postal_code":"95112","city":"San Jose","state":"CA","country":"US","url":"http://store.channelfireball.com","latitude":37.3377314,"longitude":-121.8884722},{"name":"TheEndZone","database_name":"endzoneonline","address1":"1515 Wabash Ave","address2":"","postal_code":"61938","city":"Mattoon","state":"IL","country":"US","url":"http://www.endzoneonline.com","latitude":39.4804379,"longitude":-88.3726822},{"name":"ManaFix.com","database_name":"manafix","address1":"265 West Shirley St","address2":"","postal_code":"76401","city":"Stephenville","state":"TX","country":"US","url":"http://www.manafix.com","latitude":32.2261176,"longitude":-98.2069159},{"name":"MtgCards.com","database_name":"mtgcards","address1":"18853 70th AVE","address2":"","postal_code":"V4N-5K3","city":"Surrey","state":"BC","country":"Ca","url":"http://mtgcards.crystalcommerce.com","latitude":49.1299248,"longitude":-122.6999027},{"name":"CardHaus.com","database_name":"cardhaus","address1":"3079 Cobblers Crossing Rd","address2":"","postal_code":"47150","city":"New Albany","state":"IN","country":"US","url":"http://www.cardhaus.com","latitude":38.366633,"longitude":-85.776311},{"name":"BlueOxGames","database_name":"blueoxgames","address1":"2816 Jackson Drive","address2":"","postal_code":"27858","city":"Greenville","state":"NC","country":"US","url":"http://www.blueoxgames.com","latitude":35.600694,"longitude":-77.341088},{"name":"CurioCavern","database_name":"curiocavern","address1":"8417 Lazy Creek Cout","address2":"","postal_code":"22153","city":"Springfield","state":"VA","country":"US","url":"http://www.curiocavern.com","latitude":38.730227,"longitude":-77.2275389},{"name":"C\u0026J Collectables","database_name":"cjcollectables","address1":"5409 central ave STE 20","address2":"","postal_code":"94560","city":"Newark","state":"CA","country":"US","url":"http://www.cjcollectibles.com","latitude":37.53877,"longitude":-122.018366},{"name":"Chimera Hobby","database_name":"chimerahobby","address1":"PO Box 943","address2":"","postal_code":"54936","city":"Fond du Lac","state":"WI","country":"US","url":"http://www.chimerahobby.com","latitude":43.77,"longitude":-88.45},{"name":"Dogs of War Gaming","database_name":"dogsofwargaming","address1":"1501 Robert J. Conlan BLVD","address2":"","postal_code":"32905","city":"Palm Bay","state":"FL","country":"US","url":"http://dogsofwargaming.crystalcommerce.com","latitude":28.0352833,"longitude":-80.597143},{"name":"LightSpeedHobbies Inc.","database_name":"lightspeedhobbies","address1":"5884 US Highway 6","address2":"","postal_code":"46368","city":"Portage","state":"IN","country":"US","url":"http://lightspeedhobbies.crystalcommerce.com","latitude":41.5505691,"longitude":-87.1817534},{"name":"GACSuperstore.com","database_name":"gacsuperstore","address1":"1716 Colorado Blvd","address2":"","postal_code":"90041","city":"Los Angeles","state":"CA","country":"US","url":"http://www.gacsuperstore.com","latitude":34.139045,"longitude":-118.204271},{"name":"PlanetComics.net","database_name":"planetcomics","address1":"2704 North Main Street","address2":"","postal_code":"29621","city":"Anderson","state":"SC","country":"US","url":"http://www.planetcomics.net","latitude":34.5300221,"longitude":-82.6613115},{"name":"MorningstarGaming","database_name":"morningstargaming","address1":"11 Margitha Drive","address2":"","postal_code":"31406","city":"Savannah","state":"GA","country":"US","url":"http://www.morningstargaming.com","latitude":32.022582,"longitude":-81.094372},{"name":"Kanatacg.com","database_name":"kanatacg","address1":"30 Cooldrook Crescent","address2":"Box 435","postal_code":"K0A3P0","city":"Munster","state":"ON","country":"CA","url":"http://www.kanatacg.com","latitude":53.4931067,"longitude":-113.6270431},{"name":"TheConnectionGames.com","database_name":"theconnectiongames","address1":"6150 Grant Street","address2":"","postal_code":"V5B2K6","city":"Burnaby","state":"BC","country":"CA","url":"http://www.TheConnectionGames.com","latitude":49.2706897,"longitude":-122.9748349},{"name":"thekeepgaming.com","database_name":"thekeepgaming","address1":"1505 Goshen Ave","address2":"","postal_code":"46808","city":"Fort Wayne","state":"IN","country":"US","url":"http://www.thekeepgaming.com","latitude":41.100844,"longitude":-85.163677},{"name":"GreenlakeGames.com","database_name":"greenlakegames","address1":"7509 Aurora Ave North","address2":"","postal_code":"98103","city":"Seattle","state":"WA","country":"US","url":"http://greenlakegames.crystalcommerce.com","latitude":47.68361,"longitude":-122.344844},{"name":"Premier Coins \u0026 Collectables","database_name":"premier-magic","address1":"7050 W Saginaw Hwy","address2":"","postal_code":"48917","city":"Lansing","state":"MI","country":"US","url":"http://www.premier-magic.com","latitude":42.7410606,"longitude":-84.6589854},{"name":"CapeFearGames.com","database_name":"capefeargames","address1":"4828 Weybridge Lane","address2":"","postal_code":"28409","city":"Wilmington","state":"NC","country":"US","url":"http://www.CapeFearGames.com","latitude":34.161081,"longitude":-77.885356},{"name":"SuperGamesInc.com","database_name":"supergamesinc","address1":"11060 Alpharetta Highway STE 134","address2":"","postal_code":"30076","city":"Roswell","state":"GA","country":"US","url":"http://www.supergamesinc.com","latitude":34.0492637,"longitude":-84.3395948},{"name":"AsgardGames.net","database_name":"asgardgames","address1":"5016 Kirby Drive","address2":"","postal_code":"77098","city":"Houston","state":"TX","country":"US","url":"http://www.asgardgames.net","latitude":29.7273823,"longitude":-95.4186431},{"name":"jeuxfaceaface.com","database_name":"facetofacegames","address1":"2441 Center Street","address2":"","postal_code":"H3K1J9","city":"Montreal","state":"QC","country":"CA","url":"http://www.facetofacegames.com","latitude":45.4794081,"longitude":-73.5682483},{"name":"O-netics.com","database_name":"o-netics","address1":"14144 76th Place NE","address2":"","postal_code":"98011","city":"Bothell","state":"WA","country":"US","url":"http://www.o-netics.com","latitude":47.729338,"longitude":-122.23916},{"name":"BattleZoneGames","database_name":"battlezonegames","address1":"1556 Washington Ave SE","address2":"","postal_code":"52403","city":"Cedar Rapids","state":"IA","country":"US","url":"http://store.battlezonegames.com","latitude":42.0391819,"longitude":-91.673409},{"name":"PaperHeroesGaming.com","database_name":"paperheroesgaming","address1":"3941 Ryan Street","address2":"Suite A","postal_code":"70605","city":"Lake Charles","state":"LA","country":"US","url":"http://www.PaperHeroesGaming.com","latitude":30.186062,"longitude":-93.218044},{"name":"AlteRealityGames.com","database_name":"alterealitygames","address1":"15601 Detroit Road","address2":"","postal_code":"44111","city":"Lakewood","state":"OH","country":"US","url":"http://www.alterealitygames.com","latitude":41.48489,"longitude":-81.806325},{"name":"OldSchoolGaming.net","database_name":"oldschoolgaming","address1":"5660 Southwyck Blvd STE 200A","address2":"","postal_code":"43614","city":"Toledo","state":"OH","country":"US","url":"http://www.oldschoolgaming.net","latitude":41.604784,"longitude":-83.671003},{"name":"PhoenixGames","database_name":"phoenixgamesinc","address1":"700 Cottontail Court.","address2":"","postal_code":"32708","city":"Winter Springs","state":"FL","country":"US","url":"http://www.PhoenixGamesInc.com","latitude":28.684569,"longitude":-81.275314},{"name":"Amazing Discoveries","database_name":"amazingmtg","address1":"2410 East Broadway Blvd ","address2":"","postal_code":"85719","city":"Tucson","state":"AZ","country":"US","url":"http://www.amazingmtg.com","latitude":32.2211489,"longitude":-110.936141},{"name":"Anthem-Games.com","database_name":"anthem-games","address1":"5383 Ehrlich Rd.","address2":"Ste. 203","postal_code":"33625","city":"Tampa","state":"FL","country":"US","url":"http://www.Anthem-Games.com","latitude":28.0825212,"longitude":-82.5433841},{"name":"PlayGameCafe.com","database_name":"playgamecafe","address1":"3708 greenwich lane","address2":"","postal_code":"64055","city":"Independance","state":"MO","country":"US","url":"http://www.playgamecafe.com","latitude":39.052399,"longitude":-94.412696},{"name":"Smedlock.com","database_name":"smedlock","address1":"PO BOx 775","address2":"","postal_code":"44028","city":"Columbia Station","state":"OH","country":"US","url":"http://www.smedlock.com","latitude":41.3131066,"longitude":-81.9468057},{"name":"PlusEVGames.com","database_name":"plusevgames","address1":"300 n lantana st","address2":"#38","postal_code":"93010","city":"Camerillo","state":"CA","country":"US","url":"http://www.plusevgames.com","latitude":34.2186643,"longitude":-119.0542174},{"name":"TaraAngelsMagic.com","database_name":"taraangelsmagic","address1":"2415 N Monroe St #2060","address2":"","postal_code":"32303","city":"Tallahassee","state":"FL","country":"US","url":"http://www.taraangelsmagic.com","latitude":30.4737595,"longitude":-84.2924914},{"name":"TheManaCrypt","database_name":"themanacrypt","address1":"596 SW 207th Ave","address2":"","postal_code":"97006","city":"Aloha","state":"OR","country":"US","url":"http://www.themanacrypt.com","latitude":45.5153562,"longitude":-122.890363},{"name":"CoreTCG","database_name":"coretcg","address1":"319 S Arroyo Parkway #4","address2":"","postal_code":"91105","city":"Pasadena","state":"CA","country":"US","url":"http://www.coretcg.com","latitude":34.140011,"longitude":-118.1474988},{"name":"TableTopArena","database_name":"tabletoparena","address1":"45 Bodwell Ave","address2":"","postal_code":"01854","city":"Lowell","state":"MA","country":"US","url":"http://www.tabletoparena.com","latitude":42.6571003,"longitude":-71.3272834},{"name":"Paladins Game Castle","database_name":"paladinsgamecastle","address1":"4301 Hahn Ave","address2":"","postal_code":"93309","city":"Bakersfield","state":"CA","country":"US","url":"http://paladinsgamecastle.crystalcommerce.com","latitude":35.328426,"longitude":-119.050691},{"name":"EmpireCards","database_name":"empirecards","address1":"PO Box 2371","address2":"","postal_code":"44241","city":"Streetsboro","state":"OH","country":"US","url":"http://www.empirecards.com","latitude":41.0243999,"longitude":-80.6748993},{"name":"Ideal808.com","database_name":"ideal808","address1":"650 iwilei road #120","address2":"","postal_code":"96817","city":"Honolulu","state":"HI","country":"US","url":"http://www.ideal808.com","latitude":21.3169345,"longitude":-157.8709898},{"name":"JascoGames.com","database_name":"jascogames","address1":"2819 34th St.","address2":"","postal_code":"79410","city":"Lubbock","state":"TX","country":"US","url":"http://www.jascogames.com","latitude":33.562996,"longitude":-101.877743},{"name":"CrossRoadGames","database_name":"crossroadgames","address1":"27 Moody Road","address2":"","postal_code":"04084","city":"Standish","state":"ME","country":"US","url":"http://www.CrossRoadGames.com","latitude":43.7570591,"longitude":-70.5468726},{"name":"GlobalMTG.com","database_name":"globalmtg","address1":"6929 Florey St","address2":"","postal_code":"92122","city":"San Diego","state":"CA","country":"US","url":"http://www.globalmtg.com","latitude":32.856423,"longitude":-117.192488},{"name":"LostHarbor.com","database_name":"lostharbor","address1":"61 Southwick Road","address2":"","postal_code":"01085","city":"Westfield","state":"MA","country":"US","url":"http://www.lostharbor.com","latitude":42.1087571,"longitude":-72.7646621},{"name":"GameTimeCC.com","database_name":"gametimecc","address1":"PO Box 24","address2":"","postal_code":"69341","city":"Gering","state":"NE","country":"US","url":"http://www.gametimecc.com","latitude":41.8263619,"longitude":-103.6577616},{"name":"Lake Geneva Games","database_name":"lakegenevagames","address1":"6651 Lakeside Rd","address2":"","postal_code":"53147","city":"Lake Geneva","state":"WI","country":"US","url":"http://www.lakegenevagames.com","latitude":42.5966754,"longitude":-88.3868039},{"name":"Manawerx.com","database_name":"manawerx","address1":"3502 west greenway rd","address2":"suite 10 \u0026 11","postal_code":"85053","city":"Phoenix","state":"AZ","country":"US","url":"http://www.manawerx.com","latitude":33.625581,"longitude":-112.1339924},{"name":"MatchPlay.com","database_name":"matchplay","address1":"502 J Street","address2":"","postal_code":"95901","city":"Marysville","state":"CA","country":"US","url":"http://www.matchplay.com","latitude":39.1397145,"longitude":-121.5981359},{"name":"HotSauceGames.com","database_name":"hotsaucegames","address1":"8620 West Davis St","address2":"","postal_code":"60016","city":"Des Plaines","state":"IL","country":"US","url":"http://www.hotsaucegames.com","latitude":42.0456689,"longitude":-87.8413379},{"name":"ToyLynx.com","database_name":"toylynx","address1":"650 Iwilei Road Suite #120","address2":"","postal_code":"96817","city":"Honolulu","state":"HI","country":"US","url":"http://www.ToyLynx.com","latitude":21.3169345,"longitude":-157.8709898},{"name":"TopDeckHobbies.com","database_name":"topdeckhobbies","address1":"6888 Westridge Ct N","address2":"","postal_code":"97303","city":"Keizer","state":"OR","country":"US","url":"http://www.topdeckhobbies.com","latitude":45.018748,"longitude":-123.028909},{"name":"TheMTGPlace.com","database_name":"themtgplace","address1":"732 S 4th St","address2":"","postal_code":"19147","city":"Philadelphia","state":"PA","country":"US","url":"http://www.themtgplace.com","latitude":39.939696,"longitude":-75.149848},{"name":"UntappedGames.com","database_name":"untappedgames","address1":"9 Sheldon Street","address2":"","postal_code":"02906","city":"Providence","state":"RI","country":"US","url":"http://www.untappedgames.com","latitude":41.819729,"longitude":-71.400668},{"name":"MTGEmporium","database_name":"mtgemporium","address1":"2905 Roslyn Court","address2":"","postal_code":"60089","city":"Buffalo Grove","state":"IL","country":"US","url":"http://www.mtgemporium.com","latitude":42.201461,"longitude":-87.955689},{"name":"The Only Game in Town","database_name":"togit","address1":"5 Berwick St","address2":"","postal_code":"08869","city":"Raritan","state":"NJ","country":"US","url":"http://www.togit.com","latitude":40.563375,"longitude":-74.644445},{"name":"Gamer Apocalypse Inc","database_name":"gamerapocalypseinc","address1":"8719 Huntington Woods Cir N","address2":"","postal_code":"32244","city":"Jacksonville","state":"FL","country":"US","url":"http://www.gamerapocalypseinc.com","latitude":30.222949,"longitude":-81.794791},{"name":"Playmat World","database_name":"playmatworld","address1":"6844 Johnson Wagon Crescent","address2":"","postal_code":"L5W1B1","city":"Mississauga","state":"ON","country":"CA","url":"http://www.playmatworld.com","latitude":43.6266358,"longitude":-79.722126},{"name":"TheWarstoreCCG.com","database_name":"thewarstoreccg","address1":"47420 Main Road","address2":"","postal_code":"11971","city":"Southold","state":"NY","country":"US","url":"http://www.thewarstoreccg.com","latitude":41.0512513,"longitude":-72.4399451},{"name":"Wild Things Games","database_name":"wildthingsgames","address1":"1288 State St","address2":"","postal_code":"97301","city":"Salem","state":"OR","country":"US","url":"http://www.wildthingsgames.com","latitude":44.9364492,"longitude":-123.0260153},{"name":"TopDeckMe.com","database_name":"topdeckme","address1":"1009 North Church Street","address2":"","postal_code":"97217","city":"Portland","state":"OR","country":"US","url":"http://www.topdeckme.com","latitude":45.56357,"longitude":-122.677258},{"name":"FunGameShop.com","database_name":"fungameshop","address1":"1354 Chemin Chambly","address2":"","postal_code":"J4J3X3","city":"Longueuil","state":"QB","country":"Ca","url":"http://www.fungameshop.com","latitude":45.5318928,"longitude":-73.4877037},{"name":"Fandomverse","database_name":"fandomverse","address1":"201 Antelope Way","address2":"","postal_code":"98145","city":"Las Vegas","state":"NV","country":"US","url":"http://www.fandomverse.com","latitude":36.172128,"longitude":-115.250528},{"name":"MTGDeals.com","database_name":"mtgdeals","address1":"115 South Walnut Grove Ave STE D","address2":"","postal_code":"91776","city":"San Gabriel","state":"CA","country":"US","url":"http://www.mtgdeals.com","latitude":34.102733,"longitude":-118.084194},{"name":"OnTheStackGames.com","database_name":"onthestackgames","address1":"99 Day Street","address2":"","postal_code":"02062","city":"Norwood","state":"MA","country":"US","url":"http://www.onthestackgames.com","latitude":42.193226,"longitude":-71.203791},{"name":"TCG Warehouse","database_name":"tcgwarehouse","address1":"8900 SW Burnham #F14","address2":"","postal_code":"97223","city":"Tigard","state":"OR","country":"US","url":"http://www.tcgwarehouse.com","latitude":45.426439,"longitude":-122.769399},{"name":"YuGiOhGaming.com","database_name":"yugiohgaming","address1":"1002 GreenTree Road","address2":"","postal_code":"15220","city":"Pittsburg","state":"PA","country":"US","url":"http://www.YugiohGaming.com","latitude":40.41734,"longitude":-80.045601},{"name":"Onestopcollectables.com","database_name":"onestopcollectables","address1":"23215 HWY 99 Apt B211","address2":"","postal_code":"98026","city":"Edmonds","state":"WA","country":"US","url":"http://www.onestopcollectables.com","latitude":47.7882693,"longitude":-122.3399017},{"name":"RelentlessMTG","database_name":"relentlessmtg","address1":"1311 North 61st Ave","address2":"","postal_code":"32506","city":"Pensacola","state":"FL","country":"US","url":"http://www.relentlessmtg.com","latitude":30.42762,"longitude":-87.29626},{"name":"TCGFan","database_name":"tcgfan","address1":"1882 Woodside Drive","address2":"","postal_code":"43040","city":"Marysville","state":"OH","country":"US","url":"http://www.tcgfan.com","latitude":40.263246,"longitude":-83.3845259},{"name":"MagicCrabs.com","database_name":"magiccrabs","address1":"105 West Arrow Hwy","address2":"STE 2","postal_code":"91773","city":"San Dimas","state":"CA","country":"US","url":"http://www.magiccrabs.com","latitude":34.1035681,"longitude":-117.8078508},{"name":"phyrexiangames.com","database_name":"phyrexiangames","address1":"52 kendall hill rd","address2":"","postal_code":"01453","city":"leominster","state":"MA","country":"US","url":"http://www.phyrexiangames.com","latitude":42.5440961,"longitude":-71.7876207},{"name":"FiveMox.com","database_name":"fivemox","address1":"18 Newfield Lane","address2":"","postal_code":"02675","city":"Yarmouth Port","state":"MA","country":"US","url":"http://www.5mox.com","latitude":41.692759,"longitude":-70.2293399},{"name":"TheGameAcademy","database_name":"thegameacademyonline","address1":"5721 East Fowler Ave","address2":"","postal_code":"33617","city":"Tampa","state":"FL","country":"US","url":"http://shop.thegameacademyonline.com","latitude":28.0543042,"longitude":-82.3922861},{"name":"TheToyFactory.com","database_name":"thetoyfactory","address1":"2407 Vintage Hill Drive","address2":"","postal_code":"27712","city":"Durham","state":"NC","country":"US","url":"http://www.thetoyfactory.com","latitude":36.118987,"longitude":-78.872055},{"name":"Rooks Comics and Games","database_name":"rookscomicsandgames","address1":"2740 west main st.","address2":"","postal_code":"59718","city":"Bozeman","state":"Mt","country":"US","url":"http://rookscomicsandgames.crystalcommerce.com","latitude":45.6726283,"longitude":-111.0742485},{"name":"Iowa City Games","database_name":"iowacitygames","address1":"206 Stevens Dr","address2":"","postal_code":"52405","city":"Iowa City","state":"IA","country":"US","url":"http://www.iowacitygames.com","latitude":41.6429339,"longitude":-91.5326941},{"name":"Cloak and Dagger Comics","database_name":"cloakanddaggercomicsonline","address1":"616 Dixie Lane","address2":"","postal_code":"32119","city":"Daytona","state":"FL","country":"US","url":"http://store.cloakanddaggercomicsonline.com","latitude":29.166718,"longitude":-81.007692},{"name":"The Metamart","database_name":"themetamart","address1":"470 Main St Apt 3G","address2":"","postal_code":"01420","city":"Fitchburg","state":"MA","country":"US","url":"http://store.themetamart.com","latitude":42.5828444,"longitude":-71.8063628},{"name":"Circle City Gaming","database_name":"circlecitygaming","address1":"7 Launch Way","address2":"","postal_code":"46038","city":"fishers","state":"in","country":"us","url":"http://www.circlecitygaming.com","latitude":39.9606977,"longitude":-86.0154176},{"name":"Sci Fi City","database_name":"sci-fi-city","address1":"8128 Mid Park Rd Ste I","address2":"","postal_code":"37921","city":"Knoxville","state":"TN","country":"US","url":"http://cards.sci-fi-city.com","latitude":35.9603111,"longitude":-84.0093901},{"name":"Elsewhere Comics","database_name":"elsewherecomics","address1":"2361 Vermont","address2":"","postal_code":"60406","city":"Blue Island","state":"IL","country":"US","url":"http://www.elsewherecomics.com","latitude":41.6554436,"longitude":-87.6796189},{"name":"FriendlyFireGames.com","database_name":"friendlyfiregames","address1":"PO Box 103","address2":"","postal_code":"06268","city":"Storrs","state":"CT","country":"US","url":"http://friendlyfiregames.crystalcommerce.com","latitude":41.8084314,"longitude":-72.2495231},{"name":"PortCityGames","database_name":"portcitygames","address1":"15 Pleasant Street Apt C1","address2":"","postal_code":"04101","city":"Portland","state":"ME","country":"US","url":"http://www.portcitygames.com","latitude":43.654655,"longitude":-70.257901},{"name":"Oasis Games","database_name":"oasisgamesslc","address1":"145 E 200 S","address2":"","postal_code":"84111","city":"Salt Lake City","state":"UT","country":"US","url":"http://oasisgamesslc.crystalcommerce.com","latitude":40.7650081,"longitude":-111.8866819},{"name":"BorderLandsGames.com","database_name":"borderlandsgames","address1":"1483 Westbrook drive NW","address2":"","postal_code":"97304","city":"Salem","state":"OR","country":"US","url":"http://borderlandsgames.crystalcommerce.com","latitude":44.9560375,"longitude":-123.0618615},{"name":"Nerdvana","database_name":"nerdvana","address1":"1923 Emporium Drive Ste F","address2":"","postal_code":"38305","city":"Jackson","state":"TN","country":"US","url":"http://nerdvana.crystalcommerce.com","latitude":35.6665934,"longitude":-88.8494539},{"name":"Leeters","database_name":"leeters","address1":"3000 Mall View Rd","address2":"Ste 1065","postal_code":"93306","city":"Bakersfield","state":"CA","country":"US","url":"http://www.leeters.info","latitude":35.393991,"longitude":-118.959638},{"name":"Category One Games","database_name":"categoryonegames","address1":"1183 N 1800 W","address2":"","postal_code":"84043","city":"Lehi","state":"UT","country":"US","url":"http://www.categoryonegames.com","latitude":40.402135,"longitude":-111.878543},{"name":"Miniature Exchange","database_name":"miniatureexchange","address1":"2723 Creekwood Ct","address2":"","postal_code":"75006","city":"Carrollton","state":"TX","country":"US","url":"http://www.miniatureexchange.com","latitude":32.968057,"longitude":-96.861373},{"name":"MTG Titan","database_name":"mtgtitan","address1":"254 Hayden Rowe St","address2":"","postal_code":"01748","city":"Hopkinton","state":"MA","country":"US","url":"http://www.mtgtitan.com","latitude":42.197119,"longitude":-71.505742},{"name":"Critical Hit Games","database_name":"criticalhitgames","address1":"702 S Gilbert St","address2":"","postal_code":"52240","city":"Iowa City","state":"IA","country":"US","url":"http://www.criticalhitgames.net","latitude":41.65249,"longitude":-91.530449},{"name":"TopDeckGamers.com","database_name":"topdeckgamers","address1":"2379 NE Loop 410","address2":"STE 110","postal_code":"78217","city":"San Antonio","state":"TX","country":"US","url":"http://www.topdeckgamers.com","latitude":29.517204,"longitude":-98.4208282},{"name":"RonsComicWorld","database_name":"ronscomicworld","address1":"1690 Rout 38","address2":"","postal_code":"08060","city":"Mt Holly","state":"NJ","country":"US","url":"http://www.ronscomicworld.com","latitude":39.9813,"longitude":-74.7764},{"name":"BigKidzGames.com","database_name":"bigkidzgames","address1":"7471 Sunview Avenue SE","address2":"","postal_code":"49548","city":"Gran Rapids","state":"MI","country":"US","url":"http://www.bigkidzgames.com","latitude":42.829703,"longitude":-85.651493},{"name":"Troll Trader Cards","database_name":"trolltradercards","address1":"The Former Pine Showroom","address2":"Kestle Mill","postal_code":"TR8 4TU","city":"Newquay","state":"Co","country":"UK","url":"http://trolltradercards.crystalcommerce.com","latitude":0.0,"longitude":0.0},{"name":"Spanky's Card Shop","database_name":"spankyscardshop","address1":"1001 e117th terrace","address2":"","postal_code":"64131","city":"kansas city ","state":"MO","country":"US","url":"http://www.spankyscardshop.com","latitude":38.9450668,"longitude":-94.5779191},{"name":"Northwest Gamer's Choice","database_name":"nwgamerschoice","address1":"3816 Bridgeport Way W","address2":"","postal_code":"98466","city":"University Place","state":"WA","country":"US","url":"http://www.nwgamerschoice.com","latitude":47.2229503,"longitude":-122.5371526},{"name":"Static Age Games \u0026 Comics","database_name":"staticagegames","address1":"655 Hwy 72 W","address2":"","postal_code":"35611","city":"Athens","state":"AL","country":"US","url":"http://www.staticagegames.com","latitude":34.7900593,"longitude":-86.976635},{"name":"BrapsMagic.com","database_name":"brapsmagic","address1":"193 Shelburne Street","address2":"","postal_code":"05401","city":"Burlington","state":"VT","country":"US","url":"http://www.brapsmagic.com","latitude":44.4599418,"longitude":-73.2081637},{"name":"Time Vault Games","database_name":"timevaultgames","address1":"1847 se 148th ave ","address2":"","postal_code":"97233","city":"portland","state":"OR","country":"US","url":"http://timevaultgames.crystalcommerce.com","latitude":45.509659,"longitude":-122.511883},{"name":"Game Theory Store","database_name":"gametheorystore","address1":"1117 Hymettus Court","address2":"","postal_code":"27607","city":"Raleigh","state":"NC","country":"US","url":"http://gametheorystore.crystalcommerce.com","latitude":35.802416,"longitude":-78.67746},{"name":"Legit MTG LLC","database_name":"legitmtg","address1":"1792 Greentree Meadows Dr","address2":"","postal_code":"45036","city":"Lebanon","state":"OH","country":"US","url":"http://store.legitmtg.com","latitude":39.4677025,"longitude":-84.2848259},{"name":"Mad Al","database_name":"madal","address1":"430 W 53rd Ave., Suite C","address2":"","postal_code":"99518","city":"Anchorage","state":"AK","country":"US","url":"http://madal.crystalcommerce.com","latitude":61.1723845,"longitude":-149.8908246},{"name":"Enchanted Realms games and gifts LLC","database_name":"enchanted-realms","address1":"6679 bismark rd.","address2":"Suite INJ","postal_code":"80922","city":"Colorado Springs","state":"CO","country":"US","url":"http://www.enchanted-realms.com","latitude":38.8688125,"longitude":-104.7031018},{"name":"Battleground Games and Hobbies","database_name":"battlegroundgames","address1":"70 brook circle","address2":"","postal_code":"02339","city":"hanover ","state":"MD","country":"US","url":"http://battlegroundgames.crystalcommerce.com","latitude":39.1461235,"longitude":-76.7459502},{"name":"Phoenixfiregames","database_name":"phoenixfiregames","address1":"62 e fairview ave","address2":"","postal_code":"83642","city":"meridian","state":"ID","country":"us","url":"http://www.phoenixfiregames.com","latitude":43.6192588,"longitude":-116.3920424},{"name":"Untap Upkeep Draw","database_name":"untap-upkeep-draw","address1":"3028 Hartert","address2":"","postal_code":"83404","city":"Idaho Falls","state":"ID","country":"US","url":"http://www.untap-upkeep-draw.com","latitude":43.470714,"longitude":-112.023007},{"name":"Nerd Rage Gaming","database_name":"nerdragegaming","address1":"49 Haversham Ln","address2":"","postal_code":"60010","city":"North Barrington","state":"IL","country":"US","url":"http://www.nerdragegaming.com","latitude":42.2123938,"longitude":-88.1235454},{"name":"Legends Games \u0026 Comics","database_name":"legendsgames","address1":"1220 E Joppa Rd #106","address2":"","postal_code":"21286","city":"Towson","state":"MD","country":"US","url":"http://legendsgames.crystalcommerce.com","latitude":39.3973706,"longitude":-76.5764479},{"name":"Kirwans game store","database_name":"kirwansgamestore","address1":"369 main st","address2":"","postal_code":"12414","city":"catskill","state":"ny","country":"us","url":"http://www.kirwansgamestore.com","latitude":42.2207018,"longitude":-73.8660763},{"name":"The Magic Arena","database_name":"themagicarena","address1":"5286 Oak Court Cove N","address2":"","postal_code":"38141","city":"Memphis","state":"TN","country":"US","url":"http://www.themagicarena.com","latitude":35.004123,"longitude":-89.846046},{"name":"Gamingzone (PR)","database_name":"gamingzoneonline","address1":"po box 5016 ","address2":"","postal_code":"00984","city":"Carolina","state":"pr","country":"Pu","url":"http://www.gamingzoneonline.com","latitude":18.3807613,"longitude":-65.9566912},{"name":"Geeks Etc.","database_name":"geeksmtg","address1":"461 W Lincoln St","address2":"","postal_code":"37388","city":"Tullahoma","state":"TN","country":"US","url":"http://www.geeksmtg.com","latitude":35.3586001,"longitude":-86.2161929},{"name":"Moxmania","database_name":"moxmania","address1":"7149 Timberwood dr.","address2":"","postal_code":"53719","city":"Madison","state":"wi","country":"us","url":"http://www.moxmania.com","latitude":43.014781,"longitude":-89.509242},{"name":"Timezonegaming","database_name":"shoptzg","address1":"430 new brunswick ave","address2":"","postal_code":"08863","city":"fords","state":"ne","country":"us","url":"http://www.shoptzg.com","latitude":40.527245,"longitude":-74.3091687},{"name":"Game Citadel","database_name":"gamecitadel","address1":"720 broadway","address2":"suite a","postal_code":"04401","city":"Bangor","state":"me","country":"us","url":"http://www.gamecitadel.com","latitude":44.8249774,"longitude":-68.7817596},{"name":"Two Headed Games","database_name":"twoheadedgames","address1":"1602 scott st.","address2":"","postal_code":"41011","city":"covington","state":"KY","country":"US","url":"http://www.twoheadedgames.com","latitude":39.0719471,"longitude":-84.5051822},{"name":"Gamescape","database_name":"gamescape","address1":"2415 n monroe st. ","address2":"303","postal_code":"32303","city":"Tallahassee","state":"FL","country":"US","url":"http://gamescape.crystalcommerce.com","latitude":30.4737595,"longitude":-84.2924914},{"name":"Jewel Scene","database_name":"jewelscene","address1":"26431 ynez rd.","address2":"suite b","postal_code":"92591","city":"Temecula","state":"CA","country":"US","url":"http://www.jewelscene.com","latitude":33.5219584,"longitude":-117.1606341},{"name":"Main Phase","database_name":"mainphase","address1":"1010 dufferin ave","address2":"","postal_code":"n8a2w1","city":"wallaceburg","state":"on","country":"Ca","url":"http://www.main-phase.com","latitude":42.5929333,"longitude":-82.3929026},{"name":"Pinkbunnygames llc","database_name":"pinkbunnygames","address1":"1204 Minnesota ave","address2":"","postal_code":"53172","city":"South Milwaukee","state":"wi","country":"us","url":"http://pinkbunnygames.crystalcommerce.com","latitude":42.9127126,"longitude":-87.8649408},{"name":"The Magic Card Trader","database_name":"themagiccardtrader","address1":"34 Bookingham Rise","address2":"","postal_code":"CV59HE","city":"Coventry","state":"UK","country":"GB","url":"http://www.themagiccardtrader.com","latitude":52.4134631,"longitude":-1.5623696},{"name":"Packards Games (Hub)","database_name":"packardshub","address1":"1130 oak ridge turnpike,  ","address2":"","postal_code":"37830","city":"Oak Ridge","state":"tn","country":"us","url":"http://videogames-demo.crystalcommerce.com","latitude":36.019852,"longitude":-84.248291},{"name":"ctrlaltelite","database_name":"ctrlaltelitegaming","address1":"5204 Detroit Rd","address2":"","postal_code":"44035","city":"Sheffield Village","state":"OH","country":"Us","url":"http://ctrlaltelitegaming.crystalcommerce.com","latitude":41.4248714,"longitude":-82.0812777},{"name":"SuperGamesInc - Store","database_name":"supergamesincstore","address1":"11060 Alpharetta Highway Ste 134","address2":"","postal_code":"30076","city":"Roswell","state":"GA","country":"US","url":"http://store.supergamesinc.com","latitude":34.049261,"longitude":-84.340305},{"name":"Threekingsloot","database_name":"threekingsloot","address1":"2005 lambert-closse","address2":"unit 6","postal_code":"h3h1z7","city":"Montreal","state":"ON","country":"Ca","url":"http://www.threekingsloot.com","latitude":45.4913479,"longitude":-73.585166},{"name":"SW CCG Market","database_name":"swccgmarket","address1":"7846 Windward Trace Circle","address2":"","postal_code":"44646","city":"Massillon","state":"OH","country":"US","url":"http://swccgmarket.crystalcommerce.com","latitude":40.86136,"longitude":-81.494806},{"name":"ImagineGamesOnline.com","database_name":"imaginegamesonline","address1":"8122 Highway 107 North","address2":"STE B \u0026 C","postal_code":"72120","city":"Sherwood","state":"AR","country":"US","url":"http://imaginegamesonline.crystalcommerce.com","latitude":34.8285561,"longitude":-92.2312798},{"name":"Wartornfront","database_name":"wartornfront","address1":"506 n union rd.","address2":"","postal_code":"95337","city":"Manteca","state":"ca","country":"us","url":"http://www.WarTornFront.com","latitude":37.804784,"longitude":-121.2350726},{"name":"Ogre's Games","database_name":"ogresgamesonline","address1":"4501 s kingshighway","address2":"","postal_code":"61039","city":"st. louis ","state":"mo","country":"Us","url":"http://ogresgamesonline.crystalcommerce.com","latitude":38.6865808,"longitude":-90.2452679},{"name":"Game Goblins","database_name":"gamegoblins","address1":"117 detonti","address2":"","postal_code":"72113","city":"maumelle","state":"ar","country":"us","url":"http://gamegoblins.crystalcommerce.com","latitude":34.87577,"longitude":-92.417168},{"name":"Carte Blanche","database_name":"carteblanchehobbies","address1":"7464 birnam","address2":"","postal_code":"h3n2t2","city":"montreal","state":"qu","country":"Ca","url":"http://www.carteblanchehobbies.com","latitude":45.5256714,"longitude":-73.6288066},{"name":"Pwnage Games","database_name":"pwnagegames","address1":"2783 elk cam blvd","address2":"suite 206","postal_code":"32738","city":"deltona","state":"FL","country":"us","url":"http://www.pwnagegames.net","latitude":28.926678,"longitude":-81.188436},{"name":"Get Some Game","database_name":"getsomegame","address1":"1224 commercial ave","address2":"","postal_code":"28205","city":"charlotte ","state":"nc","country":"us","url":"http://getsomegame.crystalcommerce.com","latitude":35.245819,"longitude":-80.782664},{"name":"Dick and Jane's sports cards","database_name":"dickandjanesonline","address1":"1833 dean rd","address2":"","postal_code":"32216","city":"jacksonville ","state":"fl","country":"us","url":"http://www.DickandJanesOnline.com","latitude":30.289055,"longitude":-81.591442},{"name":"Masterworkgames","database_name":"masterworkgames","address1":"2547-a Nashville hwy","address2":"","postal_code":"38401","city":"Columbia ","state":"Tn","country":"US","url":"http://www.masterworkgames.com","latitude":35.7100714,"longitude":-86.9745524},{"name":"Card Titan","database_name":"cardtitan","address1":"204 Tarry Drive","address2":"","postal_code":"08057","city":"Moorestown","state":"NJ","country":"US","url":"http://www.cardtitan.com","latitude":39.9293532,"longitude":-74.9980558},{"name":"Dizzy Dugout","database_name":"dizzydugout","address1":"121 E Main St","address2":"","postal_code":"62234","city":"Collinsville","state":"IL","country":"US","url":"http://www.dizzydugout.com","latitude":38.6704194,"longitude":-89.9853198},{"name":"GrandLan Gaming Center","database_name":"grandlangamingcenter","address1":"po box 230311","address2":"","postal_code":"49523","city":"grand rapids","state":"mi","country":"us","url":"http://grandlangamingcenter.crystalcommerce.com","latitude":42.96,"longitude":-85.67},{"name":"Pink Gorilla Games","database_name":"pinkgorillagames","address1":"6053 california ave sw","address2":"","postal_code":"98136","city":"seattle","state":"Wa","country":"Us","url":"http://pinkgorillagames.crystalcommerce.com","latitude":47.546975,"longitude":-122.387655},{"name":"Duelist Groundz","database_name":"duelistgroundz","address1":"3107 delmore rd","address2":"","postal_code":"33618","city":"Tampa","state":"fl","country":"us","url":"http://duelistgroundz.crystalcommerce.com","latitude":28.0771075,"longitude":-82.5023464},{"name":"Gamerz","database_name":"indygamerz","address1":"8735 US 31 South ","address2":"","postal_code":"46227","city":"Indianapolis","state":"IN","country":"US","url":"http://indygamerz.crystalcommerce.com","latitude":39.6392734,"longitude":-86.129314},{"name":"Desert Sky Games","database_name":"desertskygames","address1":"1811 west winchester","address2":"","postal_code":"85286","city":"Chandler","state":"az","country":"us","url":"http://store.desertskygames.com","latitude":33.2884699,"longitude":-111.872521},{"name":"Lamere De Labysse","database_name":"labyss","address1":"7355 san michele blvd","address2":"","postal_code":"h2a2z9","city":"Montreal","state":"Mo","country":"ca","url":"http://www.labyss.ca","latitude":45.5598067,"longitude":-73.6001246},{"name":"TGATampa","database_name":"tgatampa","address1":"5721 East Fowler Ave","address2":"","postal_code":"33617","city":"Tampa","state":"FL","country":"us","url":"http://shop.tgatampa.com","latitude":28.0543042,"longitude":-82.3922861},{"name":"Legends Comics and Games","database_name":"legendscomicsandgames","address1":"10123 North Wolf Road STE 2108","address2":"","postal_code":"95014","city":"Cupertino","state":"CA","country":"US","url":"http://legendscomicsandgames.crystalcommerce.com","latitude":37.3268591,"longitude":-122.0150134},{"name":"Superior Game Works","database_name":"superiorgameworks","address1":"1015 N 3rd St Ste #3","address2":"","postal_code":"49855","city":"Marquette","state":"MI","country":"US","url":"http://taigagames.crystalcommerce.com","latitude":46.5526417,"longitude":-87.3947721},{"name":"superspecialawesomecards","database_name":"superspecialawesomecards","address1":"5773 silver sage ct.","address2":"","postal_code":"91709","city":"Chino Hills","state":"Ca","country":"us","url":"http://superspecialawesomecards.crystalcommerce.com","latitude":33.95144,"longitude":-117.678954},{"name":"Tier 1 Cards \u0026 Games ","database_name":"tier1cardsandgames","address1":"1921 west diamond blvd","address2":"suite b3","postal_code":"99515","city":"Anchorage","state":"ak","country":"us","url":"http://tier1cardsandgames.crystalcommerce.com","latitude":61.1389847,"longitude":-149.915883},{"name":"A+ Comics and Collectibles","database_name":"apluscomics","address1":"123 Southland Drive","address2":"","postal_code":"40503","city":"Lexington","state":"ky","country":"US","url":"http://apluscomics.crystalcommerce.com","latitude":38.0117621,"longitude":-84.5180501},{"name":"The Realm Games \u0026 Comics","database_name":"therealmgamesandcomics","address1":"1021 e. imperial hwy","address2":"suite g2","postal_code":"92821","city":"Brea","state":"ca","country":"us","url":"http://www.therealmgames.com","latitude":33.9131337,"longitude":-117.8908777},{"name":"Magicsingles.com","database_name":"magicsingles","address1":"160 Main Street","address2":"","postal_code":"01757","city":"Milford","state":"MA","country":"US","url":"http://store.tjcollect.com","latitude":42.1411854,"longitude":-71.5197635},{"name":"Game Changer","database_name":"gamechangerstores","address1":"991 e. eau gallie blvd","address2":"suite c","postal_code":"32937","city":"indian harbour beach","state":"Fl","country":"US","url":"http://www.gamechangerstores.com","latitude":28.1386175,"longitude":-80.5824746},{"name":"Accidentally Cool Games","database_name":"accidentallycoolgames","address1":"407 Algoma ST NW","address2":"","postal_code":"56601","city":"Bemidji","state":"MN","country":"US","url":"http://www.accidentallycoolgames.com","latitude":47.5013667,"longitude":-94.8837147},{"name":"Teddy N Me","database_name":"teddynme","address1":"499 Main St S","address2":"","postal_code":"l6y1n7","city":"Brampton","state":"ON","country":"CA","url":"http://www.teddynme.com","latitude":43.667598,"longitude":-79.735885},{"name":"Gamers Grove","database_name":"gamersgrove","address1":"1518 university ave","address2":"","postal_code":"77320","city":"huntsville ","state":"tx","country":"us","url":"http://www.gamers-grove.com","latitude":30.7188152,"longitude":-95.5505108},{"name":"DeckFactory","database_name":"deckfactory","address1":"6742 E State Blvd","address2":"","postal_code":"46815","city":"Fort Wayne","state":"IN","country":"US","url":"http://www.deckfactory.com","latitude":41.1036447,"longitude":-85.0552147},{"name":"Top Deck Cards and Games","database_name":"topdeckcardsandgames","address1":"5797 library rd","address2":"building 2 suite 1","postal_code":"15102","city":"Bethel park","state":"Pa","country":"us","url":"http://www.topdeckcardsandgames.net","latitude":40.311225,"longitude":-80.032505},{"name":"No Limit Gaming","database_name":"nlgtcg","address1":"3613 Wilmington Pike ","address2":"","postal_code":"45429","city":"Kettering ","state":"OH","country":"US","url":"http://nlgtcg.crystalcommerce.com","latitude":39.693999,"longitude":-84.13831},{"name":"Game Haven","database_name":"thegamehaven","address1":"3141 Transportation RD","address2":"","postal_code":"45404","city":"Dayton","state":"OH","country":"US","url":"http://www.thegamehaven.com","latitude":39.800537,"longitude":-84.131974},{"name":"Mirage Gaming","database_name":"mirage-gaming","address1":"4884 S Kirk way","address2":"","postal_code":"80015","city":"AURORA","state":"co","country":"US","url":"http://www.mirage-gaming.com","latitude":39.62771,"longitude":-104.746065},{"name":"MTGCardMarket.com","database_name":"mtgcardmarket","address1":"747 N Wabash Ave","address2":"Unit 2305","postal_code":"60611","city":"Chicago","state":"IL","country":"US","url":"http://www.mtgcardmarket.com","latitude":41.8964239,"longitude":-87.626558},{"name":"Frogtown Hobbies","database_name":"frogtownhobbies","address1":"117 central ave","address2":"","postal_code":"43460","city":"rossford","state":"Oh","country":"us","url":"http://www.frogtownhobbies.com","latitude":41.603877,"longitude":-83.571063},{"name":"Grinders Games","database_name":"grindersgames","address1":"14002 n 49th ave","address2":"1087","postal_code":"85306","city":"phoenix","state":"az","country":"us","url":"http://www.grindersgames.com","latitude":33.6132054,"longitude":-112.1669045},{"name":"Just Flip TCG","database_name":"justfliptcg","address1":"PO box i","address2":"","postal_code":"95121","city":"San Jose","state":"CA","country":"US","url":"http://www.justfliptcg.com","latitude":34.2607742,"longitude":-118.6050915},{"name":"Revelations LLC","database_name":"thefoundrygamestore","address1":"7914 memorial parkway sw","address2":"suite a3","postal_code":"35802","city":"huntsville ","state":"Al","country":"us","url":"http://www.thefoundrygamestore.com","latitude":34.662465,"longitude":-86.5712275},{"name":"DNA Comics and Games","database_name":"dnacomicsandgames","address1":"20032 hwy 59 n","address2":"","postal_code":"77338","city":"Humble","state":"Tx","country":"us","url":"http://www.dnacomicsandgames.com","latitude":30.0078681,"longitude":-95.2665465},{"name":"Cardgeek","database_name":"cardgeek","address1":"C D Tuinenburgstraat 193","address2":"","postal_code":"3078GD","city":"Rotterdam","state":"So","country":"Th","url":"http://www.cardgeek.com","latitude":51.8913813,"longitude":4.54988},{"name":"Perfect Storm Mtg","database_name":"perfectstormmtg","address1":"57088 South Main St","address2":"","postal_code":"49071","city":"Mattawan","state":"MI","country":"US","url":"http://perfectstormmtg.crystalcommerce.com","latitude":42.2112067,"longitude":-85.7852085},{"name":"Just Games","database_name":"justgamesevents","address1":"553 American Dream Car Rd","address2":"","postal_code":"40701","city":"Corbin","state":"KY","country":"US","url":"http://www.justgamesevents.com","latitude":36.9486986,"longitude":-84.0968761},{"name":"Game Keeper","database_name":"gamekeeperonline","address1":"7815 Chateau Briand","address2":"","postal_code":"h2r-2m5","city":"Montreal","state":"Qu","country":"Ca","url":"http://www.gamekeeperonline.com","latitude":45.5444865,"longitude":-73.6234469},{"name":"breakpoint books","database_name":"breakpointtcg","address1":"3767 Lake Center Dr","address2":"","postal_code":"32757","city":"Mt. Dora","state":"Fl","country":"US","url":"http://www.breakpointtcg.com","latitude":28.813176,"longitude":-81.683334},{"name":"Epic Gaming","database_name":"epicgamingpdx","address1":"17185 SE Mcloughlin BLVD","address2":"","postal_code":"97267","city":"Milwaukie","state":"OR","country":"US","url":"http://www.epicgamingpdx.com","latitude":45.3991052,"longitude":-122.6195509},{"name":"LA Mood Comics","database_name":"lamoodcomics","address1":"350 Richmond st","address2":"","postal_code":"N6a3c3","city":"Ontario","state":"On","country":"Ca","url":"http://www.Lamoodcomics.com","latitude":42.9819985,"longitude":-81.2487909},{"name":"Pirate Chest","database_name":"piratechest","address1":"1620 n. banana river dr.","address2":"","postal_code":"32952","city":"merritt islands","state":"fl","country":"us","url":"http://www.piratechest.com","latitude":28.386802,"longitude":-80.667845},{"name":"The Comic Hunter","database_name":"comichunter","address1":"465 Main Street","address2":"","postal_code":"E1C-1C2","city":"Moncton","state":"NB","country":"Ca","url":"http://comichunter.crystalcommerce.com","latitude":46.0904362,"longitude":-64.7717026},{"name":"MKohl Games","database_name":"mkohlgames","address1":"3554 cr 427","address2":"","postal_code":"46706","city":"auburn","state":"in","country":"us","url":"http://www.mkohlgames","latitude":41.4020374,"longitude":-85.0422786},{"name":"Across the Board Games","database_name":"acrosstheboardgames","address1":"449 n andy griffith park way","address2":"suite 700","postal_code":"27030","city":"mt. airy","state":"nc","country":"us","url":"http://acrosstheboardgames.crystalcommerce.com","latitude":36.507478,"longitude":-80.625998},{"name":"The War Store (2)","database_name":"warstore2","address1":"47420 main rd. southold ","address2":"","postal_code":"11971","city":"new york","state":"ny","country":"us","url":"http://warstore2.crystalcommerce.com","latitude":41.0512513,"longitude":-72.4399451},{"name":"Eudemonia.net","database_name":"eudogames","address1":"2154 University Avenue","address2":"","postal_code":"94704","city":"Berkley","state":"CA","country":"US","url":"http://store.eudogames.com","latitude":37.871997,"longitude":-122.267013},{"name":"Get Your Fun On","database_name":"getyourfunonshop","address1":"3030 W New Haven Ave.","address2":"","postal_code":"32904","city":"West Melbourne","state":"FL","country":"US","url":"http://getyourfunonshop.crystalcommerce.com","latitude":27.9874331,"longitude":-80.6622152},{"name":"Classic Game Shops LLC dba the whiz store","database_name":"whiznet","address1":"122 Turnpike Rd","address2":"","postal_code":"01581","city":"Westborough","state":"MA","country":"US","url":"http://whiznet.crystalcommerce.com","latitude":42.284386,"longitude":-71.605221},{"name":"Gamers Gambit","database_name":"gamersgambit","address1":"2600 s road ","address2":"","postal_code":"12601","city":"poughkeepfie","state":"ny","country":"us","url":"http://www.gamersgambit.com","latitude":41.6675252,"longitude":-73.9288981},{"name":"Cataclysm Collectables","database_name":"cataclysmcollectables","address1":"5069 edgemere ct","address2":"","postal_code":"61073","city":"Roscoe","state":"Il","country":"us","url":"http://cataclysmcollectables.crystalcommerce.com","latitude":42.4276539,"longitude":-89.0181398},{"name":"The Gamers Guild LLC","database_name":"okgamersguild","address1":"221 s frankphillips blvd","address2":"","postal_code":"74005","city":"bartlettsville","state":"ok","country":"us","url":"http://www.okgamersguild.com","latitude":36.7510609,"longitude":-95.9757281},{"name":"Tier 1 Games","database_name":"tier1games","address1":"28860 old town front street","address2":"suite b-2","postal_code":"92590","city":"Temecula","state":"CA","country":"us","url":"http://www.tier1games.com","latitude":33.4872609,"longitude":-117.144127},{"name":"Happy Viking Games","database_name":"happyvikinggames","address1":"2952 olga pl","address2":"","postal_code":"32205","city":"jacksonville","state":"fl","country":"us","url":"http://happyvikinggames.crystalcommerce.com","latitude":30.307975,"longitude":-81.7026107},{"name":"Magic and Monsters","database_name":"magicandmonsters","address1":"24001 via second ward sadricante","address2":"unit 906","postal_code":"92691","city":"mission viejo","state":"ca","country":"Us","url":"http://magicandmonsters.crystalcommerce.com","latitude":33.6062809,"longitude":-117.6728185},{"name":"All About Games","database_name":"aagboise","address1":"7079 overland rd","address2":"","postal_code":"83709","city":"Boise","state":"Id","country":"us","url":"http://aagboise.crystalcommerce.com","latitude":43.5901281,"longitude":-116.2697719},{"name":"The Game Hub","database_name":"thegamehub","address1":"PO BOX 1495","address2":"","postal_code":"95457","city":"Lower Lake","state":"CA","country":"US","url":"http://thegamehub.crystalcommerce.com","latitude":38.9104546,"longitude":-122.6102614},{"name":"Troll Trader","database_name":"thetrolltrader","address1":"The Former Pine Showroom","address2":"Kestle Mill","postal_code":"TR8 4TU","city":"Newquay","state":"Co","country":"Un","url":"http://www.thetrolltrader.com","latitude":0.0,"longitude":0.0},{"name":"Tier Zer0 Gaming ","database_name":"tierzer0gaming","address1":"223-a west walnut st","address2":"","postal_code":"27530","city":"goldsboro","state":"NC","country":"us","url":"http://www.tierzer0gaming.com","latitude":35.38412,"longitude":-77.999645},{"name":"Fantasy Sportscards","database_name":"fantasysportscards","address1":"126n 7th st ","address2":"","postal_code":"45750","city":"Marietta","state":"Oh","country":"Us","url":"http://fantasysportscards.crystalcommerce.com","latitude":39.4172192,"longitude":-81.4454809},{"name":"Sunshine Adventure Gaming","database_name":"sagmiami","address1":"PO BOX 558276","address2":"","postal_code":"33255","city":"Miami","state":"FL","country":"US","url":"http://sagmiami.crystalcommerce.com","latitude":25.7889689,"longitude":-80.2264393},{"name":"MythicVault.com","database_name":"mythicvault","address1":"12611 ne 99th st.","address2":"w159","postal_code":"98682","city":"Vancouver ","state":"wa","country":"us","url":"http://www.mythicvault.com","latitude":45.6924333,"longitude":-122.5422478},{"name":"Magic Traders (Eudemonia sister site)","database_name":"magictraders","address1":"2154 University Ave","address2":"","postal_code":"94704","city":"Berkley","state":"CA","country":"US","url":"http://store.magictraders.com","latitude":42.492408,"longitude":-83.124888},{"name":"Mythic Realm LLC","database_name":"mythicrealmllc","address1":"1024 Brinsmade ","address2":"","postal_code":"10465","city":"Bronx","state":"NY","country":"US","url":"http://www.mythicrealmllc.com","latitude":40.829695,"longitude":-73.83076},{"name":"Good Fellas Games","database_name":"goodfellasgames","address1":"1428 e semoran blvd","address2":"suite 108","postal_code":"32703","city":"Apopaka","state":"Fl","country":"Us","url":"http://goodfellasgames.crystalcommerce.com","latitude":28.672001,"longitude":-81.483862},{"name":"Gaming Underground","database_name":"gamingundergroundllc","address1":"2619 s main st.","address2":"suite 125","postal_code":"27263","city":"highpoint ","state":"NC","country":"us","url":"http://gamingundergroundllc.crystalcommerce.com","latitude":35.9277562,"longitude":-79.9857897},{"name":"Rock Game Shop","database_name":"rockgameshop","address1":"3600 SW 117th AVE ","address2":"","postal_code":"33183","city":"Miami","state":"FL","country":"US","url":"http://rockgameshop.crystalcommerce.com","latitude":25.7363272,"longitude":-80.3835924},{"name":"Mike and Beas ","database_name":"mikeandbeas","address1":"6313 Lost Peak Ct.","address2":"","postal_code":"93311","city":"Bakersfield","state":"CA","country":"US","url":"http://www.mikeandbeas.com","latitude":35.2970029,"longitude":-119.123666},{"name":"Web-head enterprises","database_name":"webheadenterprises","address1":"239 N Ave ","address2":"","postal_code":"01880","city":"Wakefield","state":"MA","country":"US","url":"http://www.webheadenterprises.com","latitude":42.51697,"longitude":-71.086546},{"name":"Pack Rat Comics","database_name":"packratcomics","address1":"3864 Lattimer St.","address2":"","postal_code":"43026","city":"Hilliard","state":"OH","country":"US","url":"http://packratcomics.crystalcommerce.com","latitude":40.0310626,"longitude":-83.1592779},{"name":"VA Cards and Collectibles","database_name":"vacardscollectibles","address1":"2080 greyfox way","address2":"","postal_code":"23456","city":"Virginia Beach","state":"Va","country":"us","url":"http://www.vacardscollectibles.com","latitude":36.7680099,"longitude":-76.025312},{"name":"Prime Time Cards \u0026 Games","database_name":"primetimecardsandgames","address1":"1232 East southern Ave #14","address2":"","postal_code":"85204","city":"Mesa","state":"AZ","country":"US","url":"http://primetimecardsandgames.crystalcommerce.com","latitude":33.3938299,"longitude":-111.8041894},{"name":"AHiddenFortress","database_name":"ahiddenfortress","address1":"2845 Cochran Street","address2":"STE C","postal_code":"93065","city":"Simi Valley","state":"CA","country":"US","url":"http://www.ahiddenfortress.com","latitude":34.2812431,"longitude":-118.7426862},{"name":"Bud's Place","database_name":"budsplacegames","address1":"8044 Parkway DR","address2":"","postal_code":"35094","city":"Leeds","state":"AL","country":"US","url":"http://budsplacegames.crystalcommerce.com","latitude":33.543987,"longitude":-86.542075},{"name":"Fables","database_name":"fables","address1":"1110 Red Bud RD NE","address2":"","postal_code":"30701","city":"Calhoun","state":"GA","country":"US","url":"http://fables.crystalcommerce.com","latitude":34.5118692,"longitude":-84.9227787},{"name":"Socalgaming","database_name":"socalgaming","address1":"26162 Red Corral Rd.","address2":"","postal_code":"92653","city":"Laguna Hills","state":"CA","country":"US","url":"http://socalgaming.crystalcommerce.com","latitude":33.582482,"longitude":-117.690718},{"name":"Colosseum Games of Wisconsin","database_name":"colosseumgamesofwi","address1":"5719 75th st ","address2":"","postal_code":"53142","city":"kenosha","state":"wi","country":"us","url":"http://www.colosseumgamesofwi.com","latitude":42.5663874,"longitude":-87.876887},{"name":"Nine Dragons Den","database_name":"powerninegaming","address1":"2020 Broadmoor Ave","address2":"","postal_code":"46818","city":"Fort Wayne","state":"IN","country":"US","url":"http://www.powerninegaming.com","latitude":41.160052,"longitude":-85.1708699},{"name":"Rochester CCG","database_name":"rochesterccg","address1":"539 sawyer st","address2":"","postal_code":"14619","city":"Rochester ","state":"NY","country":"US","url":"http://www.rochesterccg.com","latitude":43.134748,"longitude":-77.647595},{"name":"The Games Arena","database_name":"thegamesarena","address1":"750 main st","address2":"unit 3","postal_code":"04240","city":"Lewiston","state":"Me","country":"Us","url":"http://thegamesarena.crystalcommerce.com","latitude":44.1256994,"longitude":-70.2010831},{"name":"Toledo Game Room","database_name":"toledogameroom","address1":"3001 west sylvania ave.","address2":"","postal_code":"43613","city":"Toledo","state":"Oh","country":"US","url":"http://www.toledogameroom.com","latitude":41.691687,"longitude":-83.616159},{"name":"Goblin Games Kokomo","database_name":"goblingameskokomo","address1":"113 e sycamore ","address2":"","postal_code":"46901","city":"Kokomo","state":"In","country":"us","url":"http://goblingameskokomo.crystalcommerce.com","latitude":40.4864699,"longitude":-86.1305086},{"name":"Untouchables Sports cards and gaming","database_name":"untouchables","address1":"377 burnham porpe rd e","address2":"","postal_code":"L5A 3Y1","city":"Mississauga","state":"on","country":"Ca","url":"http://www.untouchables.ca","latitude":43.6029335,"longitude":-79.6270101},{"name":"First Turn Games","database_name":"firstturngames","address1":"3621 1st ave se","address2":"","postal_code":"52403","city":"Cedar Rapids ","state":"IA","country":"us","url":"http://firstturngames.crystalcommerce.com","latitude":42.0150319,"longitude":-91.6350478},{"name":"Mox Monkeys ","database_name":"moxmonkeys","address1":"217 west kleberg","address2":"","postal_code":"78363","city":"Kingsville","state":"Tx","country":"us","url":"http://www.moxmonkeys.com","latitude":27.5164281,"longitude":-97.8698827},{"name":"TCG Inferno","database_name":"tcginferno","address1":"5011 glen ridge ","address2":"unit 27","postal_code":"78229","city":"San Antonio","state":"tx","country":"US","url":"http://www.tcginferno.com","latitude":29.4926061,"longitude":-98.5870995},{"name":"JJ Card Store ","database_name":"jjcardstore","address1":"295 montauk hwy ","address2":"suite #12","postal_code":"11972","city":"Speonk","state":"NY","country":"us","url":"http://jjcardstore.crystalcommerce.com","latitude":40.818621,"longitude":-72.704341},{"name":"Joven's Trading Post","database_name":"jovenstradingpost","address1":"285 Old Village Circle","address2":"Unit 5102","postal_code":"32084","city":"St. Augustine","state":"FL","country":"US","url":"http://www.jovenstradingpost.com","latitude":29.9094168,"longitude":-81.3998662},{"name":"Imaginarium Games","database_name":"imaginariumgames","address1":"2017 43rd st. ","address2":"u-6","postal_code":"49508","city":"Grand Rapids","state":"Mi","country":"US","url":"http://www.imaginariumgames.net","latitude":42.8858035,"longitude":-85.6144267},{"name":"Comic Book Addiction","database_name":"cbagames","address1":"1022 Brock St S.","address2":"","postal_code":"L1N-4L8","city":"Whitby","state":"On","country":"Ca","url":"http://www.CBAGames.com","latitude":43.8696691,"longitude":-78.9382538},{"name":"Gamer's Spot","database_name":"gamersspot","address1":"350 Rue Heriot","address2":"","postal_code":"J2B 1B2","city":"Drummondville","state":"Qu","country":"Ca","url":"http://gamersspot.crystalcommerce.com","latitude":45.8829689,"longitude":-72.4848668},{"name":"Get There Games","database_name":"gettheregames","address1":"1759 victory blvd.","address2":"","postal_code":"10314","city":"Staten Island ","state":"ny","country":"US","url":"http://gettheregames.crystalcommerce.com","latitude":40.6130994,"longitude":-74.1224642},{"name":"Gamers Paradise","database_name":"gamersparadisela","address1":"17540 Airline HWY","address2":"Suite G","postal_code":"70769","city":"Prairieville","state":"LA","country":"US","url":"http://gamersparadisela.crystalcommerce.com","latitude":30.3304925,"longitude":-90.9837531},{"name":"All The King's Men Chess and Games","database_name":"atkmgames","address1":"62 South Broadway","address2":"","postal_code":"08071","city":"Pitman","state":"NJ","country":"US","url":"http://atkmgames.crystalcommerce.com","latitude":39.7317011,"longitude":-75.130398},{"name":"The Meta Game","database_name":"akmetagame","address1":"3085 W. Bayridge Cir.","address2":"","postal_code":"99654","city":"Wasilla","state":"AK","country":"US","url":"http://akmetagame.crystalcommerce.com","latitude":61.55583,"longitude":-149.525243},{"name":"Stone-Leaf","database_name":"stone-leaf","address1":"411 main st.","address2":"","postal_code":"95971","city":"quincy ","state":"ca","country":"us","url":"http://stone-leaf.com","latitude":39.9354372,"longitude":-120.9313056},{"name":"Ottos Video Games and More","database_name":"ottosvideogamesandmore","address1":"7701 White Lane ","address2":"","postal_code":"93309","city":"Bakersfield","state":"CA","country":"Un","url":"http://www.ottosvideogamesandmore.com","latitude":35.317298,"longitude":-119.088243},{"name":"CardExchange","database_name":"cardexchangegaming","address1":"14020 Aurora Ave N","address2":"","postal_code":"98133","city":"Seattle","state":"WA","country":"US","url":"http://cardexchangegaming.crystalcommerce.com","latitude":47.7310153,"longitude":-122.3446362},{"name":"Alter Ego Collectibles","database_name":"alteregocollectibles","address1":"7119 Chanticleer Ave SE","address2":"","postal_code":"98065","city":"Snoqualmie","state":"WA","country":"US","url":"http://alteregocollectibles.crystalcommerce.com","latitude":47.536448,"longitude":-121.868616},{"name":"Ooples","database_name":"ooples","address1":"7460 Callaghan RD","address2":"Suite 410","postal_code":"78229","city":"San Antonio","state":"TX","country":"US","url":"http://www.ooples.com","latitude":29.503818,"longitude":-98.559401},{"name":"Things and Games","database_name":"thingsandgames","address1":"817 ricon pl","address2":"","postal_code":"27703","city":"Duram","state":"No","country":"us","url":"http://www.thingsandgames.com","latitude":35.9682052,"longitude":-78.8272286},{"name":"Voltage Gaming Online","database_name":"voltagegamingonline","address1":"po box 8222","address2":"","postal_code":"06042","city":"Manchester","state":"Ct","country":"us","url":"http://voltagegamingonline.crystalcommerce.com","latitude":41.7985487,"longitude":-72.5323139},{"name":"Durdle Zone","database_name":"durdlezone","address1":"1642 Kewalo St","address2":"#405","postal_code":"96822","city":"Honolulu ","state":"HI","country":"US","url":"http://durdlezone.crystalcommerce.com","latitude":21.306574,"longitude":-157.8371019},{"name":"Homefield sportscards and gaming","database_name":"homefieldcards","address1":"620 n new warrington rd","address2":"","postal_code":"32506","city":"Pensacola ","state":"fl","country":"us","url":"http://homefieldcards.crystalcommerce.com","latitude":30.419631,"longitude":-87.274822},{"name":"Game World","database_name":"gameworldweb","address1":"PO Box 422344","address2":"","postal_code":"34742","city":"Kissimmee","state":"FL","country":"US","url":"http://www.gameworldweb.com","latitude":28.3009571,"longitude":-81.4181247},{"name":"Stomping Grounds","database_name":"stompinggroundsstore","address1":"181 Seneca St. ","address2":"Suite 3","postal_code":"14843","city":"Hornell","state":"NY","country":"US","url":"http://www.stompinggroundsstore.com","latitude":42.335819,"longitude":-77.65991},{"name":"Columbiasportscard","database_name":"columbiagame","address1":"5900 ne 88th st","address2":"ste 205","postal_code":"98665","city":"Vancouver","state":"wa","country":"us","url":"http://www.columbiagame.com","latitude":45.6865477,"longitude":-122.6118675},{"name":"Icarus Magic","database_name":"icarusmagic","address1":"3079 Cobblers Crossing rd. ","address2":"","postal_code":"47150","city":"New Albany ","state":"In","country":"Us","url":"http://www.icarusmagic.com","latitude":38.366633,"longitude":-85.776311},{"name":"Carl's Game Station","database_name":"carlsgamestation","address1":"203 Burns Ln.","address2":"","postal_code":"33884","city":"Winterhaven","state":"FL","country":"US","url":"http://www.carlsgamestation.com","latitude":28.0208949,"longitude":-81.6750739},{"name":"Everything Games","database_name":"everythinggames","address1":"316 w halfday rd","address2":"","postal_code":"60089","city":"Buffalo Grove","state":"IL","country":"us","url":"http://www.everythinggames.net","latitude":42.1960533,"longitude":-87.9645756},{"name":"wii play games","database_name":"wiiplaygames","address1":"3310 S. Nellis BLVD","address2":"Suite 10","postal_code":"89121","city":"Las Vegas","state":"NV","country":"US","url":"http://www.wiiplaygames.com","latitude":36.128593,"longitude":-115.0643775},{"name":"Battlefield Games Texas","database_name":"battlefieldgamestexas","address1":"4200 E Stan Schlueter Loop","address2":"Ste. A. ","postal_code":"76542","city":"Killeen","state":"TX","country":"US","url":"http://battlefieldgamestexas.crystalcommerce.com","latitude":31.0780734,"longitude":-97.7009062},{"name":"Circle City Games","database_name":"circlecitygames","address1":"3219 Abaca Ct.","address2":"","postal_code":"46203","city":"Indianapolis","state":"IN","country":"US","url":"http://www.circlecitygames.com","latitude":39.721263,"longitude":-86.057574},{"name":"Macnarb","database_name":"macnarbgaming","address1":"1505 OldField DR","address2":"","postal_code":"39553","city":"Gautier","state":"MI","country":"US","url":"http://macnarbgaming.crystalcommerce.com","latitude":0.0,"longitude":0.0},{"name":"Gamer's Den Shop","database_name":"gamersdenshop","address1":"6410 Webber Rd","address2":"Ste 7","postal_code":"78413","city":"Corpus Christi","state":"TX","country":"US","url":"http://www.gamersdenshop.com","latitude":27.6997431,"longitude":-97.4108743},{"name":"Enck and Diamond Arcade and Card Shop","database_name":"enck-diamond","address1":"625 Cumberland St","address2":"","postal_code":"17042","city":"Lebanon","state":"PA","country":"US","url":"http://enck-diamond.crystalcommerce.com","latitude":40.3395222,"longitude":-76.4218861},{"name":"The Battle Grounds Games","database_name":"thebattlegroundsgames","address1":"816 walnut square blvd. ","address2":"suite 51","postal_code":"30720","city":"Dalton","state":"Ga","country":"us","url":"http://thebattlegroundsgames.crystalcommerce.com","latitude":34.7698021,"longitude":-84.9702228},{"name":"Epic Puzzles and Games","database_name":"epicpug","address1":"3612 w 4700 s","address2":"suite 4","postal_code":"84129","city":"West Valley City","state":"Ut","country":"US","url":"http://epicpug.crystalcommerce.com","latitude":0.0,"longitude":0.0},{"name":"Fongo Bongo Games","database_name":"fongobongo","address1":"1751 W 12600 S","address2":"","postal_code":"84065","city":"Riverton","state":"UT","country":"US","url":"http://fongobongo.crystalcommerce.com","latitude":40.5210186,"longitude":-111.939879},{"name":"The Haunted Game Cafe","database_name":"thehauntedgamecafe","address1":"3307 south college","address2":"","postal_code":"80525","city":"fort collins ","state":"co","country":"Us","url":"http://thehauntedgamecafe.crystalcommerce.com","latitude":0.0,"longitude":0.0},{"name":"The Bat Cave","database_name":"thebatcave","address1":"8100 Cantrell Rd #1105","address2":"","postal_code":"72227","city":"Little Rock","state":"AR","country":"US","url":"http://www.batcavecardsandcomics.com","latitude":34.778271,"longitude":-92.3660088},{"name":"Don's Magic and Sundry","database_name":"donsmagicandsundry","address1":"20500 alderleaf terrace","address2":"","postal_code":"20874","city":"Germantown","state":"Md","country":"us","url":"http://www.donsmagicandsundry.com","latitude":39.191283,"longitude":-77.269414},{"name":"Card Addiction","database_name":"cardaddiction","address1":"1700 B College Way","address2":"","postal_code":"91754","city":"Monterey Park","state":"CA","country":"US","url":"http://www.cardaddiction.com","latitude":34.044387,"longitude":-118.152819},{"name":"GameFuzion LLC","database_name":"gamefuzion","address1":"953 W. Lebanon St.","address2":"","postal_code":"62263","city":"Nashville","state":"IL","country":"US","url":"http://www.gamefuzion.org","latitude":38.3422616,"longitude":-89.392256},{"name":"ARG Lakewood","database_name":"arglakewood","address1":"15016 Columbine Ave","address2":"","postal_code":"44111","city":"Cleveland","state":"OH","country":"US","url":"http://www.arglakewood.com","latitude":41.46072,"longitude":-81.801534},{"name":"Game Corps","database_name":"gamecorpsonline","address1":"216 Bonney Brae ","address2":"","postal_code":"16511","city":"Erie","state":"PA","country":"US","url":"http://www.gamecorpsonline.com","latitude":42.1697632,"longitude":-79.9979309},{"name":"Mizewell Games","database_name":"mizewellgames","address1":"2125 Hark Rider ST","address2":"Suite 36","postal_code":"72032","city":"Conway","state":"AR","country":"US","url":"http://www.mizewellgames.com","latitude":35.1074168,"longitude":-92.4421231},{"name":"Command Zone Games","database_name":"commandzone","address1":"555 Poplar St","address2":"","postal_code":"31201","city":"Macon","state":"GA","country":"US","url":"http://commandzone.crystalcommerce.com","latitude":32.8350088,"longitude":-83.6293682},{"name":"TheEndGames","database_name":"theendgames","address1":"722 West Rio Rd.","address2":"","postal_code":"22901","city":"Charlottesville","state":"VA","country":"US","url":"http://www.theendgames.co","latitude":38.083366,"longitude":-78.4745949},{"name":"Epikos Comics Cards and Games","database_name":"epikosccg","address1":"9408 apison pike","address2":"suite 9","postal_code":"37363","city":"Ooltewah","state":"Tn","country":"Us","url":"http://www.epikosccg.com","latitude":35.059515,"longitude":-85.0688459},{"name":"www.RivalsCCG.com","database_name":"rivalsccg","address1":"2501 E 28th St Ste 101","address2":"","postal_code":"90755","city":"Signal Hill","state":"CA","country":"US","url":"http://www.rivalsccg.com","latitude":0.0,"longitude":0.0},{"name":"TappedOutMagic.com","database_name":"tappedoutmagic","address1":"PO Box 2221","address2":"","postal_code":"30096","city":"Duluth","state":"GA","country":"US","url":"http://www.TappedOutMagic.com","latitude":34.0028786,"longitude":-84.1446376},{"name":"equilibriumgamestore","database_name":"equilibriumgamestore","address1":"1203 AutoCenter Drive","address2":"","postal_code":"94509","city":"Antioch","state":"CA","country":"US","url":"http://www.equilibriumgamestore.com","latitude":38.0124116,"longitude":-121.829015},{"name":"PFC Games","database_name":"pfcgames","address1":"8438 Frederick PL","address2":"","postal_code":"98026","city":"Edmonds","state":"WA","country":"US","url":"http://www.pfcgames.com","latitude":0.0,"longitude":0.0},{"name":"ARG Akron","database_name":"argakron","address1":"15016 Columbine Ave","address2":"","postal_code":"44111","city":"Cleveland","state":"oh","country":"us","url":"http://www.argakron.com","latitude":41.46072,"longitude":-81.801534},{"name":"Dark Water Games","database_name":"darkwatergames","address1":"12 College Ln. ","address2":"","postal_code":"02536","city":"East Falmouth","state":"MA","country":"US","url":"http://www.darkwatergames.us","latitude":41.630576,"longitude":-70.545757},{"name":"Shotwell Technologies CO Limited","database_name":"blacklotus","address1":"35, Theklas Lysioti Street","address2":"Eagle Star House, 6th Floor","postal_code":"3030","city":"Limassol","state":"Re","country":"Gr","url":"http://www.blacklotus.gr","latitude":0.0,"longitude":0.0},{"name":"Unfold Games","database_name":"unfoldgames","address1":"2121 east Lambert rd","address2":"suite 305","postal_code":"90631","city":"La-Habra","state":"Ca","country":"us","url":"http://www.unfoldgames.com","latitude":0.0,"longitude":0.0},{"name":"Affinity for Cards","database_name":"affinityforcards","address1":"5443 old barn circle","address2":"","postal_code":"46268","city":"Indianapolis","state":"IN","country":"us","url":"http://www.affinityforcards.com","latitude":39.86789,"longitude":-86.257229},{"name":"Flint Gaming","database_name":"flintgaming","address1":"PO Box 320436","address2":"","postal_code":"48532","city":"Flint","state":"MI","country":"US","url":"http://www.flintgaming.com","latitude":43.0164056,"longitude":-83.7942551},{"name":"Brian's Comics and Games","database_name":"brianscomicsandgames","address1":"135 west main","address2":"","postal_code":"48625","city":"Harrison","state":"MI","country":"us","url":"http://www.brianscomicsandgames.com","latitude":44.0196686,"longitude":-84.8018633},{"name":"Imperial Games","database_name":"imperial-games","address1":"4404 State Route 28","address2":"","postal_code":"13350","city":"Herkimer ","state":"NY","country":"US","url":"http://www.imperial-games.com","latitude":0.0,"longitude":0.0},{"name":"Mindgamesltd","database_name":"mindgamesltd","address1":"531 Colston Ln","address2":"","postal_code":"40601","city":"Frankfurt","state":"KY","country":"US","url":"http://www.mindgamesltd.com","latitude":38.2289802,"longitude":-84.7968469},{"name":"Baseball Cards and Memorabilia","database_name":"card-collecting","address1":"5681 redwood dr.","address2":"Suite 12","postal_code":"94928","city":"Rohnert Park","state":"Ca","country":"US","url":"http://www.card-collecting.com","latitude":38.354036,"longitude":-122.714188},{"name":"Yiz Games","database_name":"yizgames","address1":"740 prospect ave","address2":"","postal_code":"60010","city":"Barrington ","state":"il","country":"us","url":"http://www.yizgames.com","latitude":42.164855,"longitude":-88.138789},{"name":"Shadowwalkers","database_name":"shadowwalkers","address1":"607 e main st.","address2":"","postal_code":"98604","city":"Battleground","state":"Wa","country":"us","url":"http://www.shadowwalkers.biz","latitude":45.7807551,"longitude":-122.5309946},{"name":"Ugly Cow Gaming","database_name":"uglycowgaming","address1":"PSC 2 Box 14942","address2":"","postal_code":"09012","city":"APO","state":"AE","country":"us","url":"http://uglycowgaming.crystalcommerce.com","latitude":0.0,"longitude":0.0},{"name":"Ultimatemtg.com","database_name":"ultimatemtg","address1":"2288 Castlegate Dr. N","address2":"","postal_code":"80108","city":"Castle Rock","state":"CO","country":"US","url":"http://www.ultimatemtg.com","latitude":0.0,"longitude":0.0},{"name":"DiscordiaGames.com","database_name":"discordiagamesstore","address1":"PO Box 385","address2":"","postal_code":"98337","city":"Bremerton","state":"WA","country":"US","url":"http://www.Discordiagamesstore.com","latitude":47.5662782,"longitude":-122.6304146},{"name":"Gamer Craze","database_name":"gamer-craze","address1":"47 main street","address2":"","postal_code":"13617","city":"campton ","state":"Ne","country":"Un","url":"http://www.gamer-craze.com","latitude":0.0,"longitude":0.0},{"name":"Gamer's Haven Greenville","database_name":"gamershavengreenville","address1":"1101 Charles BLVD","address2":"","postal_code":"27858","city":"Greenville","state":"NC","country":"US","url":"http://www.gamershavengreenville.com","latitude":35.604285,"longitude":-77.37199},{"name":"BST Games","database_name":"bstgames","address1":"244 e bellevue rd.","address2":"","postal_code":"95301","city":"Atwater","state":"Ca","country":"us","url":"http://www.bstgames.com","latitude":37.360461,"longitude":-120.5941728},{"name":"CCG Hobbies Mexico (Drabelis Shop)","database_name":"ccghobbiesmexico","address1":"Calle 2 Viveros de Hoctum","address2":"#24 Col. Viveros de Valle","postal_code":"54060","city":"Mexico City","state":"Tl","country":"MX","url":"http://www.ccghobbiesmexico.com","latitude":0.0,"longitude":0.0},{"name":"Gamer Utopia","database_name":"thegamerutopia","address1":"100 North Dixieland Rd.","address2":"Suite A6-7","postal_code":"72756","city":"Rogers","state":"AR","country":"US","url":"http://www.thegamerutopia.com","latitude":36.335807,"longitude":-94.145608},{"name":"Atomicfun","database_name":"atomicfun","address1":"114 N. 8th ST","address2":"","postal_code":"54220","city":"Manitowoc","state":"WI","country":"US","url":"http://www.atomicfun.net","latitude":44.0934796,"longitude":-87.6579974},{"name":"Bad Wolf Trading","database_name":"badwolftrading","address1":"16911 Old Blue Luetta Rd","address2":"Suite 3","postal_code":"77070","city":"Houston","state":"TX","country":"US","url":"http://www.badwolftrading.com","latitude":30.0019251,"longitude":-95.5587967},{"name":"Cardfight Capital","database_name":"cardfightcapital","address1":"1851 Misty Moon Way","address2":"","postal_code":"54115","city":"De Pere","state":"WI","country":"US","url":"http://www.cardfightcapital.com","latitude":44.440395,"longitude":-88.1152539},{"name":"Astral Games Online","database_name":"astralgamesonline","address1":"207 e barnett","address2":"","postal_code":"97501","city":"Medford","state":"Or","country":"us","url":"http://www.astralgamesonline.com","latitude":42.3175888,"longitude":-122.8625422},{"name":"Tap n' Atk Games","database_name":"tapnatkgames","address1":"1104 carlisle rd","address2":"","postal_code":"17011","city":"Camp Hill","state":"Pa","country":"us","url":"http://www.tapnatkgames.com","latitude":40.231333,"longitude":-76.892061},{"name":"Brute Force Games","database_name":"bruteforcemtg","address1":"4745 Wilson Ave","address2":"Apt #1","postal_code":"92116","city":"San Diego","state":"CA","country":"US","url":"http://www.bruteforcegames.net","latitude":32.7642837,"longitude":-117.1161338},{"name":"Dragons Keep","database_name":"dragonskeep","address1":"260 n university ave. ","address2":"","postal_code":"84601","city":"Provo","state":"Ut","country":"us","url":"http://www.dragonskeep.com","latitude":40.2371731,"longitude":-111.658653},{"name":"Oregon Trail Games","database_name":"oregontrailgames","address1":"319 e 2nd st","address2":"","postal_code":"97058","city":"The Dalles","state":"Or","country":"us","url":"http://www.oregontrailgames.biz","latitude":45.601016,"longitude":-121.180712},{"name":"cyberlordgames","database_name":"cyberlordgames","address1":"3136 400th county road ","address2":"","postal_code":"77612","city":"buna","state":"te","country":"Un","url":"http://www.cyberlordgames.com","latitude":30.4223989,"longitude":-93.9470396},{"name":"Battleground CA","database_name":"gobattleground","address1":"321 Inger ","address2":"Unit N317","postal_code":"93454","city":"Santa Maria","state":"CA","country":"US","url":"http://www.gobattleground.com","latitude":34.928336,"longitude":-120.432028},{"name":"Magic Gaming Store","database_name":"magicgamingstore","address1":"24 dunnock close","address2":"","postal_code":"po94hq","city":"Rowlands Castle","state":"Ha","country":"Uk","url":"http://magicgamingstore.co.uk","latitude":50.8784372,"longitude":-0.997335},{"name":"Game Master Goods","database_name":"gamemastergoods","address1":"954 South Broadway","address2":"","postal_code":"11801","city":"Hicksville","state":"NY","country":"US","url":"http://www.gamemastergoods.com","latitude":40.7452771,"longitude":-73.4999457},{"name":"Ottawa Gaming Cards","database_name":"ottawagamerz","address1":"67 Preston St","address2":"","postal_code":"K1R-7N6","city":"Ottawa","state":"ON","country":"Ca","url":"http://www.ottawagamerz.ca","latitude":45.4097953,"longitude":-75.7150404},{"name":"The Hobby Shop of Wilson","database_name":"thehobbyshopofwilson","address1":"2101 Tarboro St SW","address2":"Unit B7","postal_code":"27893","city":"Wilson","state":"NC","country":"US","url":"http://www.thehobbyshopofwilson.com","latitude":35.718626,"longitude":-77.950082},{"name":"armor ogre games","database_name":"armoredogre","address1":"9080 buchanan trail","address2":"","postal_code":"55076","city":"intergrove heights","state":"MN","country":"Un","url":"http://www.armoredogre.com","latitude":44.8183714,"longitude":-93.0439908},{"name":"Campus Cards and Games","database_name":"campuscardsandgames","address1":"1226 Corporate BLVD","address2":"Suite 130","postal_code":"32817","city":"Orlando","state":"FL","country":"US","url":"http://www.campuscardsandgames.com","latitude":28.6052666,"longitude":-81.2157277},{"name":"The Game Cave","database_name":"thegamecave","address1":"228 Sanders Ferry RD","address2":"APT C48","postal_code":"37075","city":"Hendersonville","state":"TN","country":"US","url":"http://www.thegamecave.net","latitude":36.2884346,"longitude":-86.6105271},{"name":"mycomicsplus","database_name":"mycomicsplus","address1":"6443 zebulon rd suite 1e","address2":"","postal_code":"31052","city":"Macon","state":"Ge","country":"Un","url":"http://www.mycomicsplus.net","latitude":32.881506,"longitude":-83.774665},{"name":"Learn 2 Play Games","database_name":"l2ptampa","address1":"3339 Handy Rd.","address2":"Apt 618","postal_code":"33618","city":"Tampa ","state":"FL","country":"US","url":"http://www.l2ptampa.com","latitude":28.075808,"longitude":-82.504503},{"name":"terracruxgames","database_name":"terracruxgames","address1":"7240 East G street","address2":"","postal_code":"98404","city":"Tacoma","state":"wa","country":"Un","url":"http://www.terracruxgames.com","latitude":47.190427,"longitude":-122.4226},{"name":"Ice Imports","database_name":"iceimports","address1":"61 evergreen way","address2":"","postal_code":"06074","city":"South Windsor","state":"Ct","country":"Us","url":"http://www.iceimports.com","latitude":0.0,"longitude":0.0},{"name":"AlternateUniverseGames.com","database_name":"alternateuniversegames","address1":"596 SW 207th Ave","address2":"","postal_code":"97006","city":"Aloha","state":"OR","country":"US","url":"http://www.alternateuniversegames.com","latitude":45.515358,"longitude":-122.89036},{"name":"Gamers Gauntlet","database_name":"gamersgauntlet","address1":"20564 hall road","address2":"","postal_code":"48038","city":"Clinton township","state":"MI","country":"Un","url":"http://www.gamersgauntlet.net","latitude":42.6283413,"longitude":-82.9197251},{"name":"Crazy Squirrel Gamestore","database_name":"crazysquirrel","address1":"464 e bullard ave","address2":"suite 105","postal_code":"93710","city":"Fresno","state":"Ca","country":"us","url":"http://www.crazysquirrel.com","latitude":36.8238113,"longitude":-119.7798906},{"name":"Card Rush","database_name":"cardrush","address1":"12096 Brookhurst St","address2":"","postal_code":"92840","city":"Garden Grove","state":"CA","country":"US","url":"http://www.cardrush.com","latitude":33.7871608,"longitude":-117.958128},{"name":"Event Horizon Games","database_name":"eventhorizongames","address1":"1496 garner station blvd","address2":"","postal_code":"27603","city":"Raleigh","state":"NC","country":"us","url":"http://www.eventhorizongames.com","latitude":35.7249143,"longitude":-78.6543371},{"name":"Alternate Universes","database_name":"alternateu","address1":"111","address2":"","postal_code":"19102","city":"Philadelphia","state":"PA","country":"US","url":"http://www.alternatu.com","latitude":0.0,"longitude":0.0},{"name":"Level Up Games","database_name":"levelupgamesftw","address1":"174 W Main St","address2":"","postal_code":"53190","city":"Whitewater","state":"WI","country":"Un","url":"http://www.levelupgamesftw.com","latitude":42.834439,"longitude":-88.73169},{"name":"Friction Games","database_name":"frictiongamesaz","address1":"500 S Coronado Dr","address2":"Apt 112","postal_code":"85635","city":"Sierra Vista","state":"AZ","country":"US","url":"http://www.frictiongamesaz.com","latitude":31.5495389,"longitude":-110.2787592},{"name":"TheMonkeyBox","database_name":"themonkeybox","address1":"unit # 38 6498 south downe pl","address2":"","postal_code":"v2rok3","city":"Chilliwack","state":"Vi","country":"Ca","url":"http://www.themonkeybox.ca","latitude":0.0,"longitude":0.0},{"name":"Jax Game Center","database_name":"jaxgamecenter","address1":"111","address2":"","postal_code":"11111","city":"Jacksonville","state":"fl","country":"US","url":"http://www.jaxgamecenter.com","latitude":30.1716298,"longitude":-81.626177},{"name":"Max Protection LLC","database_name":"comic-defender","address1":"5862 s. 194th st. ","address2":"","postal_code":"98032","city":"Kent","state":"Wa","country":"Us","url":"http://www.comic-defender.com","latitude":47.4282449,"longitude":-122.264324},{"name":"Game Qore","database_name":"gameqore","address1":"107 E Main","address2":"","postal_code":"93291","city":"Visalia","state":"CA","country":"US","url":"http://www.gameqore.com","latitude":36.330155,"longitude":-119.2921676},{"name":"Game Star Inc","database_name":"gamestarinc","address1":"118 West 1st Street","address2":"","postal_code":"97132","city":"Newberg","state":"OR","country":"US","url":"http://www.gamestarinc.net","latitude":45.3003091,"longitude":-122.9793317},{"name":"Dreamwizards","database_name":"dreamwizards","address1":"11772 parklawn drive","address2":"","postal_code":"20852","city":"rockville","state":"ma","country":"Un","url":"http://www.dreamwizards.com","latitude":39.0479543,"longitude":-77.1019399},{"name":"Hero Support","database_name":"herosupport","address1":"823 e st","address2":"","postal_code":"98671","city":"Washougal","state":"Wa","country":"us","url":"http://www.herosupportwa.com","latitude":45.5817262,"longitude":-122.3643362},{"name":"Adventurer's Quarter","database_name":"adventurersquarter","address1":"1641 s zuni st","address2":"","postal_code":"80223","city":"Denver ","state":"Co","country":"us","url":"http://www.adventurersquarter.com","latitude":39.686752,"longitude":-105.016043},{"name":"Mythic Realm Games","database_name":"mythicrealmgames","address1":"14313 ne 20th ave","address2":"suite 109a","postal_code":"98686","city":"Vancouver ","state":"Wa","country":"Un","url":"http://www.mythicrealmgames.com","latitude":45.7250609,"longitude":-122.650846},{"name":"wizardsquestgaming","database_name":"wizardsquestgaming","address1":"2289 patterson rd","address2":"","postal_code":"45420","city":"kettering","state":"OH","country":"Un","url":"http://www.wizardsquestgaming","latitude":39.723264,"longitude":-84.130242},{"name":"Auggies Games","database_name":"auggiesgamestore","address1":"248 Prince Anthony Dr. ","address2":"","postal_code":"30044","city":"Lawrenceville ","state":"GA","country":"US","url":"http://www.auggiesgamestore.com","latitude":33.929688,"longitude":-84.055283},{"name":"AZ Brain Games","database_name":"azbraingames","address1":"610 5Th AVE ","address2":"","postal_code":"85546","city":"Safford","state":"AZ","country":"US","url":"http://www.azbraingames.com","latitude":0.0,"longitude":0.0},{"name":"QC Gaming","database_name":"qcgaming","address1":"541 hwy 78 w","address2":"","postal_code":"35501","city":"Jasper","state":"Al","country":"us","url":"http://www.qcgaming.com","latitude":33.8489255,"longitude":-87.2809297},{"name":"Tower of Games","database_name":"towerofgames","address1":"1400 kempsville rd","address2":"suite 133","postal_code":"23320","city":"Chesepeke","state":"va","country":"us","url":"http://www.towerofgames.com","latitude":36.764454,"longitude":-76.202257},{"name":"Tacoma Games","database_name":"liketacomagames","address1":"3001 6th Ave","address2":"","postal_code":"98407","city":"Tacoma","state":"WA","country":"Un","url":"http://www.LikeTacomaGames.com","latitude":47.2555128,"longitude":-122.4750684},{"name":"A Mythic Trader","database_name":"amythictrader","address1":"Malfattigassa 18","address2":"APT 28-29","postal_code":"1120","city":"Vienna","state":"Vi","country":"Au","url":"http://www.amythictrader.com","latitude":0.0,"longitude":0.0},{"name":"316 Collectibles","database_name":"316collectibles","address1":"1012 Newpark Mall","address2":"","postal_code":"94560","city":"Newark","state":"CA","country":"US","url":"http://www.316collectibles.com","latitude":37.5266682,"longitude":-121.9977284},{"name":"The Wasteland Gaming","database_name":"thewastelandgaming","address1":"4805 Lawrenceville Highway","address2":"Suite 200","postal_code":"30047","city":" Lilburn","state":"GA","country":"Us","url":"http://www.thewastelandgaming.com","latitude":33.8946864,"longitude":-84.1405478},{"name":"Frontline Games","database_name":"frontlinegames","address1":"1795 Patricia DR","address2":"","postal_code":"37040","city":"Clarksville","state":"TN","country":"US","url":"http://www.frontlinegames.net","latitude":36.54732,"longitude":-87.346777},{"name":"Tapped out gaming","database_name":"tappedoutgamingscv","address1":"28410 ave stanford","address2":"","postal_code":"91355","city":"Vilencia","state":"CA","country":"Un","url":"http://www.tappedoutgamingscv.com","latitude":34.4384099,"longitude":-118.5950095},{"name":"GalaxyGamesdeland","database_name":"galaxygames-online","address1":"207 northwoodland blvd ","address2":"","postal_code":"32720","city":"deland","state":"FL","country":"Un","url":"http://www.galaxygames-online.com","latitude":29.030198,"longitude":-81.303206},{"name":"Gold TCG","database_name":"goldtcg","address1":"1170 josephine rd","address2":"","postal_code":"55113","city":"Roseville","state":"Mn","country":"Us","url":"http://www.goldtcg.com","latitude":45.030259,"longitude":-93.150387},{"name":"The Mana Vault","database_name":"tmvgames","address1":"16 north brook street","address2":"","postal_code":"54935","city":"Fondulette ","state":"WI","country":"Un","url":"http://www.tmvgames.com","latitude":43.789674,"longitude":-88.4306955},{"name":"Fusion Gaming Online","database_name":"fusiongamingonline","address1":"1473 Pembina highway","address2":"","postal_code":"r3t2c5","city":"Winnapeg","state":"Mo","country":"Ca","url":"http://www.fusiongamingonline.com","latitude":49.8359992,"longitude":-97.1512145},{"name":"Arbiter Games LLC","database_name":"brothersgrimccg","address1":"63 penny dr.","address2":"","postal_code":"11933","city":"Calverton","state":"Ne","country":"us","url":"http://www.brothersgrimccg.com","latitude":40.931847,"longitude":-72.782043},{"name":"Mini Duels","database_name":"miniduels","address1":"4270 aloma avenue suit 148","address2":"","postal_code":"32792","city":"winnipog","state":"FL","country":"Un","url":"http://www.miniduels.com","latitude":28.6092911,"longitude":-81.3014284},{"name":"Warlord's Den","database_name":"warlordsden","address1":"402 N 5th St","address2":"","postal_code":"17046","city":"Lebanon","state":"PA","country":"US","url":"http://www.warlordsden.com","latitude":40.3459331,"longitude":-76.4198486},{"name":"The Green Dragon Online","database_name":"thegreendragononline","address1":"7671 north woods blvd","address2":"suite 5T","postal_code":"29406","city":"North Charleston","state":"SC","country":"us","url":"http://www.thegreendragononline.com","latitude":32.93745,"longitude":-80.04776},{"name":"hogwart'zrejects","database_name":"hogwartzrejects","address1":"117 downside drive ","address2":"","postal_code":"28512","city":"Atlantic Beach","state":"NC","country":"Un","url":"http://www.hogwartzrejects.com","latitude":34.6990505,"longitude":-76.7402108},{"name":"Cape Cod Collectibles","database_name":"capecodcollectibles","address1":"3090 cranberry hwy","address2":"","postal_code":"02538","city":"East Wareham","state":"Ma","country":"us","url":"http://www.capecodcollectibles.net","latitude":41.7560723,"longitude":-70.6450702},{"name":"Silver Creek Game Shop","database_name":"silvercreekgameshop","address1":"947 s indiana ave","address2":"","postal_code":"47172","city":"Sellersburg","state":"In","country":"Us","url":"http://www.silvercreekgameshop.com","latitude":38.3872803,"longitude":-85.751442},{"name":"NextLinkGaming","database_name":"nextlinkgaming","address1":"1444 ditty ave","address2":"","postal_code":"95403","city":"santa rosa","state":"CA","country":"Un","url":"http://www.NextLinkGaming.com","latitude":38.4671771,"longitude":-122.735984},{"name":"Maelstrom Store","database_name":"maelstromstore","address1":"10887 Ilderton rd","address2":"","postal_code":"M0M2A0","city":"Ilderton ","state":"On","country":"Ca","url":"http://www.maelstromstore.com","latitude":0.0,"longitude":0.0},{"name":"ziacomics","database_name":"ziacomix","address1":"1300 El Paseo Suite E1","address2":"","postal_code":"88001","city":"Las Cruces","state":"NM","country":"Un","url":"http://www.ziacomix.com","latitude":32.2966,"longitude":-106.772},{"name":"Card Monster Games","database_name":"cardmonstergames","address1":"7600 kingston pike","address2":"","postal_code":"37919","city":"Knoxville","state":"TN","country":"US","url":"http://www.cardmonstergames.com","latitude":35.926781,"longitude":-84.0365687},{"name":"ISD Gaming","database_name":"isdgaming","address1":"Bo, Maleza Alta Gate 5 Plaza","address2":"km 9.8","postal_code":"00603","city":"Aguadilla","state":"PR","country":"US","url":"http://www.isdgaming.com","latitude":18.4274454,"longitude":-67.1540698},{"name":"Most Good Hobby \u0026 Fun Emporium","database_name":"mostgoodhobby","address1":"501 Astoria Ct","address2":"","postal_code":"60061","city":"Vernon Hills","state":"IL","country":"US","url":"http://www.mostgoodhobby.com","latitude":42.234817,"longitude":-87.963072},{"name":"Mishra's Workshop","database_name":"mishrasworkshop","address1":"14362 Pernell DR","address2":"","postal_code":"48313","city":"Sterling Heights","state":"MI","country":"US","url":"http://www.mishrasworkshop.com","latitude":42.589601,"longitude":-82.98188},{"name":"A2Z Games LLC","database_name":"thea2zgames","address1":"4257 w Iba Rd","address2":"","postal_code":"85741","city":"Tucson","state":"AZ","country":"us","url":"http://www.thea2zgames.com","latitude":32.336551,"longitude":-111.0560485},{"name":"t\u0026j'scardandhobbyshop","database_name":"tjcardandhobbyshop","address1":"225 south madison blvd suite z","address2":"","postal_code":"27573","city":"rocxburo","state":"NC","country":"Un","url":"http://www.tjcardandhobbyshop.net","latitude":36.397242,"longitude":-78.983895},{"name":"Madhatter Games","database_name":"madhattergames","address1":"320 main street","address2":"","postal_code":"81212","city":"cannyon ","state":"CO","country":"Un","url":"http://www.madhattergames.com","latitude":43.5455891,"longitude":-116.8067427},{"name":"Pair of Dice Games","database_name":"pairofdicegames","address1":"117 Gahan Drive","address2":"","postal_code":"39503","city":"Gulfport","state":"MS","country":"US","url":"http://www.pairofdicegames.com","latitude":0.0,"longitude":0.0},{"name":"Chicagoland Games","database_name":"chicagolandgames","address1":"5550 n broadway","address2":"","postal_code":"60640","city":"Chicago","state":"il","country":"us","url":"http://www.chicagolandgames.com","latitude":41.9831987,"longitude":-87.660099},{"name":"Arrowstar Games","database_name":"arrowstargames","address1":"526 spring meadow","address2":"","postal_code":"76401","city":"Stephensville ","state":"Tx","country":"us","url":"http://www.arrowstargames.com","latitude":32.2303695,"longitude":-98.2304689},{"name":"Xace Games","database_name":"xacegames","address1":"4753 Normal Ave","address2":"","postal_code":"46226","city":"Indianapolis","state":"IN","country":"US","url":"http://www.xacegames.com","latitude":39.843288,"longitude":-86.029229},{"name":"MTG Collector","database_name":"mtgcollector","address1":"385 Rhode Island st","address2":"","postal_code":"14213","city":"Buffalo","state":"NY","country":"us","url":"http://www.mtgcollector.com","latitude":42.910682,"longitude":-78.886998},{"name":"Gamers Emporium LLC","database_name":"gamersemporium","address1":"10520 Reagan Run Dr","address2":"","postal_code":"34711","city":"Clairemont","state":"FL","country":"US","url":"http://www.gamersemporium.com","latitude":0.0,"longitude":0.0},{"name":"livernmorecards","database_name":"southerncards","address1":"po box 708 ","address2":"","postal_code":"42352","city":"livingworth","state":"KY","country":"Un","url":"http://www.southerncards.com","latitude":37.4931142,"longitude":-87.1319587},{"name":"The Dark Side","database_name":"darksidecomics","address1":"501 N. Beneva Rd ","address2":"Suite #260","postal_code":"34232 ","city":"Sarasota","state":"FL","country":"US","url":"http://www.darksidecomics.net","latitude":27.341,"longitude":-82.4985389},{"name":"jemtg","database_name":"jemtg","address1":"3090 S. Dorchester Rd.","address2":"","postal_code":"43221","city":"Columbus","state":"OH","country":"US","url":"http://www.jemtg.com","latitude":40.0174639,"longitude":-83.081226},{"name":"Kapow Comics","database_name":"kapowcomicsandgames","address1":"2631 freedom parkway","address2":"","postal_code":"30041","city":"Cumming","state":"Ga","country":"Us","url":"http://www.kapowcomicsandgames.com","latitude":0.0,"longitude":0.0},{"name":"X-treme Comics and Games","database_name":"xtremecng","address1":"1401 green brier park way suit 2","address2":"","postal_code":"32563","city":"Golf breeze ","state":"FL","country":"Un","url":"http://www.xtremecng.com","latitude":28.1297029,"longitude":-80.6678342},{"name":"scifi-factory","database_name":"scifi-factory","address1":"10716 north beach street","address2":"","postal_code":"76244","city":"Forth Worth","state":"TX","country":"Un","url":"http://www.scifi-factory.com","latitude":32.92928,"longitude":-97.288685},{"name":"Cards Games Comics","database_name":"cardsgamescomics","address1":"1431 Lincoln blvd","address2":"","postal_code":"94001","city":"Santa Monica ","state":"Ca","country":"US","url":"http://www.cardsgamescomics.com","latitude":34.0189588,"longitude":-118.4903002},{"name":"Game Nite","database_name":"gameniteshop","address1":"8330 watson rd","address2":"","postal_code":"63119","city":"st louis ","state":"MS","country":"Un","url":"http://www.gameniteshop.com","latitude":38.565958,"longitude":-90.350152},{"name":"The Golden Sleeve","database_name":"thegoldensleeve","address1":"60 rudding pon reddington drive ","address2":"","postal_code":"m2k2j9","city":"toronto","state":"ON","country":"Ca","url":"http://www.thegoldensleeve.com","latitude":43.7916475,"longitude":-79.3903735},{"name":"The Chicago Club House","database_name":"thechicagoclubhouse","address1":"1627 waukegan rd","address2":"","postal_code":"60025","city":"Glenview ","state":"Il","country":"us","url":"http://www.thechicagoclubhouse.com","latitude":42.0849873,"longitude":-87.7982501},{"name":"Next Move Games","database_name":"nextmovegames","address1":"531 Yonge St","address2":"","postal_code":"M4Y 1Y5","city":"Toronto","state":"ON","country":"CA","url":"http://www.nextmovegames.ca","latitude":43.6641603,"longitude":-79.3841025},{"name":"bnc hobbies","database_name":"bnchobbies","address1":"729 alderon ave","address2":"","postal_code":"45205","city":"cinci","state":"OH","country":"Un","url":"http://www.bnchobbies.com","latitude":39.1066278,"longitude":-84.5798623},{"name":"americanhobbysupply","database_name":"forbiddenforestgames","address1":"349 park way north suite c","address2":"","postal_code":"30062","city":"mariata","state":"GA","country":"Un","url":"http://www.forbiddenforestgames.com","latitude":33.9326278,"longitude":-84.554871},{"name":"Grove Gamers Guild","database_name":"grovegamersguild","address1":"127 West Second Street","address2":"","postal_code":"65711","city":"Mountain Grove","state":"MO","country":"Un","url":"http://www.grovegamersguild.com","latitude":37.1298443,"longitude":-92.2636101},{"name":"Game On Cafe","database_name":"gameoncafe","address1":"49 water street ","address2":"","postal_code":"04330","city":"augusta","state":"Ma","country":"Un","url":"http://www.gameoncafe.org","latitude":44.3196606,"longitude":-69.7735936},{"name":"Asgard Keep","database_name":"asgardkeep","address1":"1001 Olin Lane","address2":"","postal_code":"62864","city":"Mount Veronon","state":"IL","country":"US","url":"http://www.asgardkeep.com","latitude":38.2942592,"longitude":-88.9044544},{"name":"Realms fantasy Games","database_name":"realmsfantasygames","address1":"908 bacons bridge rd unit 1","address2":"","postal_code":"29485","city":"Summerville","state":"SC","country":"Un","url":"http://www.realmsfantasygames.com","latitude":32.9969361,"longitude":-80.1867183},{"name":"Clockwork Gamer","database_name":"clockworkgamer","address1":"12829 campolina way","address2":"","postal_code":"76244","city":"Fort Worth","state":"Tx","country":"Us","url":"http://www.clockworkgamer.com","latitude":32.96233,"longitude":-97.29179},{"name":"Kessel run games","database_name":"kesselrungames","address1":"5angele ","address2":"","postal_code":"k0a1w0","city":"emberund","state":"ON","country":"Ca","url":"http://www.kesselrungames.ca","latitude":0.0,"longitude":0.0},{"name":"fabricatedrealitygames","database_name":"fabricatereality","address1":"106 west herrick ave","address2":"","postal_code":"44090","city":"wellington","state":"Oh","country":"Un","url":"http://www.fabricatereality.com","latitude":41.1685887,"longitude":-82.2178091},{"name":"Phantasm Gaming","database_name":"phantasmgaming","address1":"22 ledyard place","address2":"","postal_code":"06512","city":"East Haven","state":"CN","country":"Un","url":"http://www.phantasmgaming.com","latitude":41.2589762,"longitude":-72.869211},{"name":"Discount TCG","database_name":"discounttcg","address1":"1001 Ocala rd","address2":"255","postal_code":"32303","city":"Tallahasse ","state":"Fl","country":"US","url":"http://www.discounttcg.com","latitude":30.452353,"longitude":-84.31648},{"name":"Tome2","database_name":"tome-2","address1":"42 saint-jacques street","address2":"","postal_code":"j3b2j7","city":"saint-jea-sur-richelieu","state":"Qu","country":"Ca","url":"http://www.tome-2.com","latitude":45.3060574,"longitude":-73.2517603},{"name":"Cardboard Classic Games","database_name":"cardboardclassicgames","address1":"609 broadway ave","address2":"","postal_code":"m4g2s4","city":"Toronto","state":"On","country":"us","url":"http://www.cardboardclassicgames.com","latitude":43.7166207,"longitude":-79.3638842},{"name":"Rising Sun Card Shop","database_name":"risingsunshops","address1":"268 Main St #261","address2":"","postal_code":"08164","city":"North Redding","state":"MA","country":"US","url":"http://www.risingsunshops.com","latitude":42.5921091,"longitude":-71.1179595},{"name":"Highlander Gaming","database_name":"highlandergaming","address1":"1301 e carroll st","address2":"","postal_code":"37388 ","city":"Tullahoma","state":"Tn","country":"us","url":"http://www.highlandergaming.com","latitude":35.369904,"longitude":-86.186269},{"name":"MTG First","database_name":"mtgfirst","address1":"6711 ritchie hwy","address2":"","postal_code":"21061","city":"Glen Burie","state":"MD","country":"us","url":"http://www.mtgfirst.com","latitude":39.1912771,"longitude":-76.6114015},{"name":"Edict Games","database_name":"thegameshoppe","address1":"913 n broadway","address2":"","postal_code":"66762","city":"Pittsburg","state":"Ks","country":"us","url":"http://www.thegameshoppe.com","latitude":37.4162046,"longitude":-94.7048676},{"name":"Beach Magic Games","database_name":"beachmagicgames","address1":"4896 main st suit 106","address2":"","postal_code":"37347","city":"Jasper ","state":"TN","country":"Un","url":"http://www.beachmagicgames.org","latitude":35.072405,"longitude":-85.617557},{"name":"TCG Rundemo","database_name":"tcgrundemo","address1":"2821 ridgeland ave ","address2":"","postal_code":"70402","city":"Berwyn","state":"IL","country":"Un","url":"http://www.tcgrundemo.com","latitude":41.838849,"longitude":-87.7828679},{"name":"Competitive Card Shack","database_name":"competitivecardshack","address1":"719 S Chapel Ave","address2":"#C","postal_code":"91801","city":"Alhambra","state":"CA","country":"US","url":"http://www.competitivecardshack.com","latitude":34.0884132,"longitude":-118.1200175},{"name":"Geeks and Nerds Quarters","database_name":"ganqgaming","address1":"215 s maple","address2":"","postal_code":"65026","city":"Eldon","state":"MO","country":"us","url":"http://www.ganqgaming.com","latitude":38.3485261,"longitude":-92.5793539},{"name":"Gigabites","database_name":"roxiecards","address1":"6435 Carraige Crt","address2":"","postal_code":"30040","city":"Cumming","state":"GA","country":"US","url":"http://roxiecards.crystalcommerce.com","latitude":34.29386,"longitude":-84.160176},{"name":"The Sage's Shoppe","database_name":"thesagesshoppe","address1":"1009 Sagemore Parkway West","address2":"","postal_code":"47906","city":"West Lafayette","state":"IN","country":"Un","url":"http://thesagesshoppe.crystalcommerce.com","latitude":40.4532567,"longitude":-86.9202507},{"name":"JAB Games","database_name":"jabgames","address1":"142 E Bacon","address2":"","postal_code":"02762","city":"Plainville","state":"MA","country":"US","url":"http://jabgames.crystalcommerce.com","latitude":0.0,"longitude":0.0},{"name":"Sad Robot MTG","database_name":"sadrobotmtg","address1":"135 w annandale rd","address2":"","postal_code":"22046","city":"Fall Church","state":"Va","country":"us","url":"http://www.sadrobotmtg.com","latitude":38.883783,"longitude":-77.174732},{"name":"Aviator-Games","database_name":"aviator-games","address1":"13415 SW 73rd Terrace","address2":"","postal_code":"33183","city":"Miami","state":"FL","country":"US","url":"http://aviator-games.crystalcommerce.com","latitude":25.698287,"longitude":-80.411164},{"name":"Gamerz Pair-a-dice","database_name":"gamerzpairadice","address1":"7460 Callaghan RD","address2":"suite 410","postal_code":"78229","city":"San Antonio","state":"Tx","country":"us","url":"http://gamerzpairadice.crystalcommerce.com","latitude":29.503818,"longitude":-98.559401},{"name":"That Book Place","database_name":"thatbookplace","address1":"337 clifty dr","address2":"","postal_code":"47250","city":"Madison","state":"In","country":"us","url":"http://thatbookplace.crystalcommerce.com","latitude":38.774469,"longitude":-85.39375},{"name":"Tails of Adventure","database_name":"toacomics","address1":"201 s 3rd st","address2":"","postal_code":"18036","city":"Coopersburg","state":"Pa","country":"us","url":"http://toacomics.crystalcommerce.com","latitude":40.5081374,"longitude":-75.3856273},{"name":"Illuminaudi","database_name":"illuminaudi","address1":"834 Ohio Pike","address2":"Unit 322","postal_code":"45245","city":"Cincinatti","state":"OH","country":"US","url":"http://illuminaudi.crystalcommerce.com","latitude":39.0650748,"longitude":-84.2789616},{"name":"Quick Sales Gaming","database_name":"quicksalesgaming","address1":"466 nw wren ave","address2":"","postal_code":"83647","city":"boise","state":"Id","country":"us","url":"http://www.quicksalesgaming.com","latitude":43.631364,"longitude":-116.3795624},{"name":"CCG Supply","database_name":"ccgsupply","address1":"115 locust st","address2":"apt c","postal_code":"47111","city":"charlestown","state":"in","country":"us","url":"http://ccgsupply.crystalcommerce.com","latitude":38.4630328,"longitude":-85.6689056},{"name":"Local Gaming Store","database_name":"localgamingstore","address1":"1249 31w bypass","address2":"suite a","postal_code":"42101","city":"Bowling Green","state":"Ky","country":"us","url":"http://localgamingstore.crystalcommerce.com","latitude":36.9823873,"longitude":-86.440888},{"name":"Satcom and computers","database_name":"dragonmtg","address1":"690 san antnio ave ","address2":"","postal_code":"71449","city":"Manning","state":"LA","country":"Un","url":"http://dragonmtg.crystalcommerce.com","latitude":31.5683335,"longitude":-93.4842425},{"name":"I Win Games","database_name":"iwingames-online","address1":"3270 aloha ave","address2":"","postal_code":"96822","city":"Honolulu ","state":"HI","country":"Un","url":"http://iwingames-online.crystalcommerce.com","latitude":21.2810706,"longitude":-157.8262678},{"name":"Mind Seek Games","database_name":"mindseekgames","address1":"2234 west beverly st.","address2":"","postal_code":"24401","city":"Staunton","state":"Va","country":"us","url":"http://mindseekgames.crystalcommerce.com","latitude":38.153116,"longitude":-79.1094964},{"name":"J\u0026R Cards and Comics","database_name":"jandrcards","address1":"42 Cushing Street","address2":"","postal_code":"04011","city":"Brunswick","state":"Ma","country":"US","url":"http://jandrcards.crystalcommerce.com","latitude":43.9147345,"longitude":-69.9719171},{"name":"Magic World Market","database_name":"magicworldmarket","address1":"18b e st louis st","address2":"","postal_code":"62254","city":"Lebanon","state":"il","country":"us","url":"http://magicworldmarket.crystalcommerce.com","latitude":38.6038935,"longitude":-89.807588},{"name":"Bigncollectible","database_name":"bigncollectibles","address1":"1101 hammond ave ","address2":"","postal_code":"60506","city":"Aurora","state":"IL","country":"Un","url":"http://bigncollectibles.crystalcommerce.com","latitude":41.780005,"longitude":-88.324205},{"name":"Showtime Cards","database_name":"showtimecards","address1":"5801 east speedway blvd","address2":"","postal_code":"85712","city":"Tuscon","state":"Az","country":"us","url":"http://showtimecards.crystalcommerce.com","latitude":32.2362531,"longitude":-110.8688331},{"name":"Dirigo Hobbies","database_name":"dirigohobbies","address1":"16 main street ","address2":"","postal_code":"04039","city":"Gray","state":"Ma","country":"Un","url":"http://dirigohobbies.crystalcommerce.com","latitude":43.8920128,"longitude":-70.3275431},{"name":"Aether Games","database_name":"aemtg","address1":"1905 daffodil drive","address2":"","postal_code":"45385","city":"xenia","state":"oh","country":"us","url":"http://aemtg.crystalcommerce.com","latitude":39.7693413,"longitude":-84.0024603},{"name":"Win Condition","database_name":"winconditioncards","address1":"4044 George Busbee Pkwy Suite 83","address2":"","postal_code":"30144","city":"Kennesaw","state":"GA","country":"Un","url":"http://www.winconditioncards.com","latitude":34.0504975,"longitude":-84.5846654},{"name":"Red Battle Games","database_name":"redbattlegames","address1":"1206 W Main St","address2":"","postal_code":"24540","city":"Danville","state":"VA","country":"US","url":"http://redbattlegames.crystalcommerce.com","latitude":36.6002818,"longitude":-79.3804361},{"name":"The State of Gaming","database_name":"thestateofgamin","address1":"264 Rock Springs Church Rd","address2":"","postal_code":"27312","city":"Pittsboro","state":"NC","country":"US","url":"http://www.thestateofgamin.com","latitude":35.764185,"longitude":-79.147518},{"name":"Gizmo's Games","database_name":"gizmosgames","address1":"1","address2":"","postal_code":"79701","city":"Midland","state":"TX","country":"US","url":"http://www.gizmosgames.com","latitude":31.990304,"longitude":-102.0940141},{"name":"Kryptonite Kollectibles Inc.","database_name":"kryptonitekollectibles","address1":"50 Campus Lane","address2":"","postal_code":"53545","city":"Janesville","state":"WI","country":"US","url":"http://www.kryptonitekollectibles.com","latitude":42.6878161,"longitude":-89.000434},{"name":"Do Not Contact - IBSInsurance","database_name":"ibsinsurance","address1":"255 Grand Blvd.","address2":"PO Box 958","postal_code":"11590","city":"New York","state":"NY","country":"US","url":"http://www.IBSInsurance.com","latitude":0.0,"longitude":0.0},{"name":"Game Keeper 2","database_name":"gkfr","address1":"7815 Chateau Briand","address2":"","postal_code":"h2r-2m5","city":"Montreal","state":"Qu","country":"Ca","url":"http://gamekeeper.fr","latitude":45.5446286,"longitude":-73.6235076},{"name":"MTG Source","database_name":"tcgjunkie","address1":"2615 West Gary Ave #1004","address2":"","postal_code":"89123","city":"Las Vegas","state":"NV","country":"US","url":"http://www.tcgjunkie.com","latitude":36.013844,"longitude":-115.1763},{"name":"12052 Recycled Entertainment","database_name":"recycledentertainment","address1":"4418 S Washington St.","address2":"","postal_code":"79110","city":"Amarillo","state":"TX","country":"US","url":"http://recycledentertainment.crystalcommerce.com","latitude":35.165069,"longitude":-101.848524},{"name":"Gate House","database_name":"gatehouse-games","address1":"208 hollidaysburg plaza","address2":"","postal_code":"16635","city":"Duncansville","state":"PA","country":"Un","url":"http://gatehouse-games.crystalcommerce.com","latitude":40.4234058,"longitude":-78.433903},{"name":"Game Crave","database_name":"gamecravetx","address1":"607 E Tyler St","address2":"Suite 114A","postal_code":"75751","city":"Athens","state":"TX","country":"US","url":"http://gamecravetx.crystalcommerce.com","latitude":32.2056322,"longitude":-95.8475076},{"name":"Day One MTG","database_name":"day1mtg","address1":"2521 Farringdon Rd","address2":"","postal_code":"21209","city":"Baltimore","state":"MD","country":"US","url":"http://day1mtg.crystalcommerce.com","latitude":39.373358,"longitude":-76.6843169},{"name":"themlpsource","database_name":"themlpsource","address1":"7207 south us highway 25","address2":"","postal_code":"40701","city":"forbin","state":"KY","country":"Un","url":"http://www.themlpsource.com","latitude":36.9854481,"longitude":-84.079972},{"name":"Wizard Den","database_name":"wizardden","address1":"415 W Jefferson #5","address2":"","postal_code":"83702","city":"Boise","state":"Id","country":"US","url":"http://wizardden.crystalcommerce.com","latitude":43.615891,"longitude":-116.1972971},{"name":"Sun Valley Gaming LLC","database_name":"sunvalleygaming","address1":"218 w Jasmine st","address2":"","postal_code":"85201","city":"Mesa","state":"Az","country":"us","url":"http://www.sunvalleygaming.com","latitude":33.449197,"longitude":-111.83605},{"name":"A and B Cards and Comics","database_name":"aandbcards","address1":"7795 Antelope Rd #26","address2":"","postal_code":"95610","city":"Citrus Heights","state":"CA","country":"US","url":"http://www.aandbcards.com","latitude":38.706561,"longitude":-121.275925},{"name":"Power 9 Collectables","database_name":"power9co","address1":"13112 Thomas ave s","address2":"","postal_code":"55227","city":"Burnsville","state":"Mn","country":"us","url":"http://www.power9co.com","latitude":44.765068,"longitude":-93.311836},{"name":"RealmWalkerGaming","database_name":"realmwalkergaming","address1":"56165 stewart street","address2":"","postal_code":"68104","city":"Omaha","state":"NB","country":"Un","url":"http://realmwalkergaming.crystalcommerce.com","latitude":32.1729224,"longitude":-84.9660787},{"name":"Card Advantage","database_name":"cardadvantagemtg","address1":"5017 Crews Crt","address2":"","postal_code":"82001","city":"Cheyenne","state":"WY","country":"US","url":"http://cardadvantagemtg.crystalcommerce.com","latitude":41.153632,"longitude":-104.748327},{"name":"Sky net games","database_name":"skynetgames","address1":"1114 south fifth street","address2":"","postal_code":"60174","city":"saint charles ","state":"IL","country":"Un","url":"http://www.skynetgames.com","latitude":41.902717,"longitude":-88.3168309},{"name":"Black Hole Gaming","database_name":"blackholegaming","address1":"130 baliant street building 222 ","address2":"","postal_code":"76908","city":"San Antonio","state":"tx","country":"Un","url":"http://www.blackholegaming.net","latitude":29.8819472,"longitude":-98.2087963},{"name":"Games To Die Four LLC","database_name":"games2d4","address1":"55 South Raceway Road, Suite 110","address2":"","postal_code":"46231","city":"Avon","state":"In","country":"US","url":"http://games2d4.crystalcommerce.com","latitude":39.7628616,"longitude":-86.3267959},{"name":"Deriums CCG's","database_name":"deriumsccgs","address1":"1928 portage trail","address2":"","postal_code":"44223","city":"Cuiahoga","state":"Oh","country":"us","url":"http://www.deriums.com","latitude":41.1477325,"longitude":-81.5058143},{"name":"Deriums CCG's","database_name":"deriums","address1":"1928 portage trail","address2":"","postal_code":"44223","city":"Cuiahoga","state":"Oh","country":"us","url":"http://deriums.com","latitude":41.1477325,"longitude":-81.5058143},{"name":"Meta-Gaming LLC","database_name":"metagamingnw","address1":"4555 Liberty Rd S. Suite #340","address2":"","postal_code":"97302","city":"Salem","state":"OR","country":"Un","url":"http://www.metagamingnw.com","latitude":44.8920474,"longitude":-123.060575},{"name":"Double J's","database_name":"doublejsst","address1":"761 East Main St","address2":"","postal_code":"40601","city":"Frankfort","state":"KY","country":"US","url":"http://www.doublejsst.com","latitude":38.2043215,"longitude":-84.8434615},{"name":"L \u0026 I Inc - RealGooDeal.com","database_name":"realgoodeal","address1":"20725 NE 16th Ave","address2":"Unit A45","postal_code":"33179","city":"North Miami Beach","state":"FL","country":"US","url":"http://www.realgoodeal.com","latitude":25.9665868,"longitude":-80.1698513},{"name":"Cards Now 24 7","database_name":"htfcards","address1":"1834 Sahara Ct.","address2":"","postal_code":"54304","city":"Green Bay","state":"WI","country":"US","url":"http://www.cardsnow247.com","latitude":44.50873,"longitude":-88.075376},{"name":"Nerdvana NV","database_name":"nerdvananv","address1":"411 main st.","address2":"","postal_code":"95971","city":"quincy ","state":"ca","country":"us","url":"http://www.nerdvananv.com","latitude":39.9354372,"longitude":-120.9313056},{"name":"Goodwill INK","database_name":"goodwillink","address1":"242 s illinois ave","address2":"","postal_code":"37830","city":"oakridge ","state":"tn","country":"us","url":"http://www.goodwillink.com","latitude":36.0070404,"longitude":-84.2589213},{"name":"Plug and Play ","database_name":"plugandplayfl","address1":"1871 north rover road","address2":"","postal_code":"32117","city":"Holly Hill ","state":"Fl","country":"Un","url":"http://www.plugandplayfl.com","latitude":29.2441688,"longitude":-81.0372925},{"name":"FTW Games","database_name":"ftwgames","address1":"13176 midlothian turnpike","address2":"","postal_code":"23113","city":"Midlothian ","state":"Va","country":"Us","url":"http://www.ftwgames.net","latitude":37.5026007,"longitude":-77.6416633},{"name":"The Complex","database_name":"thecomplexme","address1":"717 us route 1","address2":"","postal_code":"04074","city":"Scarborough","state":"Me","country":"us","url":"http://www.thecomplexme.com","latitude":43.5682199,"longitude":-70.3907737},{"name":"OMG Games","database_name":"omggames","address1":"130 Bell Farm Rd","address2":"","postal_code":"L4M 6J4","city":"Barrie","state":"ON","country":"Ca","url":"http://www.omggames.ca","latitude":44.410567,"longitude":-79.6766065},{"name":"Whittz End","database_name":"whittzend","address1":"121 west Pine street","address2":"","postal_code":"27230","city":"mount airy","state":"NC","country":"Un","url":"http://www.whittzend.com","latitude":36.49906,"longitude":-80.607484},{"name":"Board Game Revolution","database_name":"boardgamerevolution","address1":"83 west 3300 south","address2":"","postal_code":"84115","city":"Salt lake city ","state":"UT","country":"Un","url":"http://www.boardgamerevolution.com","latitude":40.6997735,"longitude":-111.8937245},{"name":"West Texas Cards","database_name":"westtexascards","address1":"3952 east 42nd street suite a","address2":"","postal_code":"79762","city":"odessa","state":"TX","country":"Un","url":"http://www.westtexascards.com","latitude":31.8914641,"longitude":-102.3433369},{"name":"Brewport Games","database_name":"brewportgames","address1":"1826 E Joppa Rd","address2":"","postal_code":"21234","city":"Parkville ","state":"MD","country":"US","url":"http://www.brewportgames.com","latitude":39.400197,"longitude":-76.552669},{"name":"Striker Games","database_name":"strikerccgtcg","address1":"5947 agra st ","address2":"","postal_code":"90201","city":"Del Garden","state":"Ca","country":"us","url":"http://www.strikerccgtcg.com","latitude":33.975921,"longitude":-118.1578485},{"name":"Dragon's Table","database_name":"dragons-table","address1":"205 north market","address2":"","postal_code":"61820","city":"chapaigne","state":"IL","country":"Un","url":"http://www.dragons-table.com","latitude":40.1170139,"longitude":-88.2415669},{"name":"Power 9 Games","database_name":"power9games","address1":"6704 Indian Chief Dr #204","address2":"","postal_code":"89130","city":"Las Vegas","state":"NV","country":"US","url":"http://www.power9games.com","latitude":36.254993,"longitude":-115.24343},{"name":"Game-Source","database_name":"game-source","address1":"PO Box 891241","address2":"","postal_code":"73189","city":"Oklahoma City","state":"OK","country":"US","url":"http://www.game-source.com","latitude":35.375689,"longitude":-97.5479076},{"name":"The Gamers Den","database_name":"crossroadsgamers","address1":"1937 Main St","address2":"","postal_code":"95076","city":"Watsonville","state":"CA","country":"US","url":"http://www.crossroadsgamers.com","latitude":36.9182141,"longitude":-121.7818843},{"name":"Three Headed Dragon","database_name":"3hdgames","address1":"po box","address2":"290388","postal_code":"92329","city":"Phelan","state":"Ca","country":"Us","url":"http://www.3hdgames.com","latitude":34.43,"longitude":-117.57},{"name":"Comic Boom","database_name":"comicboomonline","address1":"22 West St.","address2":"","postal_code":"03431","city":"Keene","state":"NH","country":"US","url":"http://www.comicboomonline.com","latitude":42.9335694,"longitude":-72.2791898},{"name":"team sabin","database_name":"teamsabin","address1":"210 magnolia street","address2":"","postal_code":"27591","city":"Wendell","state":"NC","country":"Un","url":"http://www.teamsabin.com","latitude":35.784054,"longitude":-78.371801},{"name":"Ugam3 LLC","database_name":"ugam3","address1":"279 Enterprise Dr","address2":"Suite 111","postal_code":"70360","city":"Houma","state":"LA","country":"US","url":"http://www.ugam3.com","latitude":29.6137466,"longitude":-90.7525103},{"name":"Board Game Revolution Orem","database_name":"boardgamerevolutionorem","address1":"83 west 3300 south ","address2":"","postal_code":"84115","city":"Orem","state":"UT","country":"Un","url":"http://www.boardgamerevolutionorem.com","latitude":40.2311768,"longitude":-111.6859172},{"name":"Game Keeper 2","database_name":"gamekeeper","address1":"7815 Chateau Briand","address2":"","postal_code":"h2r-2m5","city":"Montreal","state":"Qu","country":"Ca","url":"http://www.gamekeeper.fr","latitude":45.5444865,"longitude":-73.6234469},{"name":"The Collectors Friends","database_name":"tcf","address1":"470 North Greenbush RD","address2":"","postal_code":"12144","city":"Rensselaer","state":"NY","country":"Un","url":"http://www.tcf.cc/","latitude":42.6603,"longitude":-73.69291},{"name":"Top Cut Central","database_name":"topcutcentral","address1":"5606 N 2nd Street","address2":"","postal_code":"61111","city":"Loves Park","state":"IL","country":"US","url":"http://topcutcentral.com","latitude":42.3125625,"longitude":-89.0580372},{"name":"Crystal Spider MTG","database_name":"crystalspidermtg","address1":"13630 via varra rd","address2":"138","postal_code":"80020","city":"Broomfield","state":"CO","country":"US","url":"http://Crystalspidermtg.com","latitude":39.9435368,"longitude":-105.1212262},{"name":"Casual Gamer Cafe","database_name":"casualgamercafe","address1":"10803 south east lynnwood","address2":"","postal_code":"97222","city":"millwake","state":"OR","country":"Un","url":"http://casualgamercafe.com","latitude":45.444473,"longitude":-122.599381},{"name":"YAMATOKU INTERNATION INC","database_name":"yamatokutrading","address1":"21151 s. western ave suite 211","address2":"","postal_code":"90501","city":"torrence","state":"CA","country":"Un","url":"http://www.yamatoku-int.com","latitude":33.8372517,"longitude":-118.3100982},{"name":"Big Kids Cards","database_name":"bigkidscards","address1":"2505 42nd st sw","address2":"","postal_code":"33972","city":"Lehigh Acres","state":"Fl","country":"us","url":"http://bigkidscards.com","latitude":26.574795,"longitude":-81.66292},{"name":"Game Empire","database_name":"tabletopgameswap","address1":"7051 Clairemont Mesa Blvd Ste 30","address2":"","postal_code":"92111","city":"San Diego","state":"CA","country":"US","url":"http://www.gameempire.com","latitude":32.8318341,"longitude":-117.1652495},{"name":"TheMonstore.com","database_name":"themonstore","address1":"14702 Gandesa Road","address2":"","postal_code":"90638","city":"Mirada","state":"CA","country":"US","url":"http://www.themonstore.com","latitude":33.897218,"longitude":-118.020182},{"name":"MX Millenium","database_name":"mxmillenium","address1":"Plaza de la Tecnologia Local 43,","address2":"","postal_code":"22000","city":"Tijuana","state":"Ba","country":"Me","url":"http://mxmillenium.com","latitude":32.5320936,"longitude":-117.0352732},{"name":"The Collectors Friends","database_name":"tcfmagic","address1":"470 North Greenbush RD","address2":"","postal_code":"12144","city":"Rensselaer","state":"NY","country":"Un","url":"http://www.tcfmagic.cc/","latitude":42.6603,"longitude":-73.69291},{"name":"The Games Arena","database_name":"thegamesarenas","address1":"750 main st","address2":"unit 3","postal_code":"04240","city":"Lewiston","state":"Me","country":"Us","url":"http://thegamesarenas.crystalcommerce.com","latitude":44.1256219,"longitude":-70.2011165},{"name":"Woodbury Gaming","database_name":"woodburygaming","address1":"14895 Mystic Lake Cir. ","address2":"","postal_code":"7104-34119","city":"Naples","state":"Fl","country":"us","url":"http://www.woodburygaming.com","latitude":26.259212,"longitude":-81.690771},{"name":"Inertia Gaming","database_name":"inertiagaminginc","address1":"738 Madison Ave","address2":"Apt C","postal_code":"22903","city":"Charlottesville","state":"VA","country":"US","url":"http://inertiagaminginc.com","latitude":38.0418071,"longitude":-78.4933534},{"name":"Millennium Games","database_name":"millenniumgamesonline","address1":"22 Queensland Drive","address2":"","postal_code":"14559","city":"Spencerport","state":"NY","country":"US","url":"http://www.millenniumgamesonline.com","latitude":43.1742599,"longitude":-77.747057}]}